{"type":"FeatureCollection","features":[{"type":"Feature","geometry":{"type":"Point","coordinates":["-3.1664690090466","55.95682762208"]},"properties":{"Site_Name":"Abbey Lane","RecyclingS":"In courtyard at No.12","BankTypeNa":"Packaging","Latitude":"55.95682762208","Longitude":"-3.1664690090466"}},{"type":"Feature","geometry":{"type":"Point","coordinates":["-3.1691460675447","55.956370951785"]},"properties":{"Site_Name":"Abbey Street","RecyclingS":"No. 10 Abbey Street - Sheltered Housing Complex","BankTypeNa":"Packaging","Latitude":"55.956370951785","Longitude":"-3.1691460675447"}},{"type":"Feature","geometry":{"type":"Point","coordinates":["-3.1691460675447","55.956370951785"]},"properties":{"Site_Name":"Abbey Street","RecyclingS":"No. 10 Abbey Street - Sheltered Housing Complex","BankTypeNa":"Paper Bank","Latitude":"55.956370951785","Longitude":"-3.1691460675447"}},{"type":"Feature","geometry":{"type":"Point","coordinates":["-3.1691460675447","55.956370951785"]},"properties":{"Site_Name":"Abbey Street","RecyclingS":"No. 10 Abbey Street - Sheltered Housing Complex","BankTypeNa":"Packaging","Latitude":"55.956370951785","Longitude":"-3.1691460675447"}},{"type":"Feature","geometry":{"type":"Point","coordinates":["-3.1691460675447","55.956370951785"]},"properties":{"Site_Name":"Abbey Street","RecyclingS":"No. 10 Abbey Street - Sheltered Housing Complex","BankTypeNa":"Bottle Bank - Mixed","Latitude":"55.956370951785","Longitude":"-3.1691460675447"}},{"type":"Feature","geometry":{"type":"Point","coordinates":["-3.1750140837521","55.953394869019"]},"properties":{"Site_Name":"Abbeyhill Crescent","RecyclingS":"No. 55 Abbeyhill Crescent","BankTypeNa":"Packaging","Latitude":"55.953394869019","Longitude":"-3.1750140837521"}},{"type":"Feature","geometry":{"type":"Point","coordinates":["-3.1750140837521","55.953394869019"]},"properties":{"Site_Name":"Abbeyhill Crescent","RecyclingS":"No. 55 Abbeyhill Crescent","BankTypeNa":"Paper Bank","Latitude":"55.953394869019","Longitude":"-3.1750140837521"}},{"type":"Feature","geometry":{"type":"Point","coordinates":["-3.1746627042903","55.953955316902"]},"properties":{"Site_Name":"Abbeyhill Crescent","RecyclingS":"No. 17 Abbeyhill Crescent","BankTypeNa":"Paper Bank","Latitude":"55.953955316902","Longitude":"-3.1746627042903"}},{"type":"Feature","geometry":{"type":"Point","coordinates":["-3.1746627042903","55.953955316902"]},"properties":{"Site_Name":"Abbeyhill Crescent","RecyclingS":"No. 17 Abbeyhill Crescent","BankTypeNa":"Packaging","Latitude":"55.953955316902","Longitude":"-3.1746627042903"}},{"type":"Feature","geometry":{"type":"Point","coordinates":["-3.217584819418","55.932018369169"]},"properties":{"Site_Name":"Abbotsford Court","RecyclingS":"abbotsford court","BankTypeNa":"Packaging","Latitude":"55.932018369169","Longitude":"-3.217584819418"}},{"type":"Feature","geometry":{"type":"Point","coordinates":["-3.217584819418","55.932018369169"]},"properties":{"Site_Name":"Abbotsford Court","RecyclingS":"abbotsford court","BankTypeNa":"Paper Bank","Latitude":"55.932018369169","Longitude":"-3.217584819418"}},{"type":"Feature","geometry":{"type":"Point","coordinates":["-3.217584819418","55.932018369169"]},"properties":{"Site_Name":"Abbotsford Court","RecyclingS":"abbotsford court","BankTypeNa":"Bottle Bank - Mixed","Latitude":"55.932018369169","Longitude":"-3.217584819418"}},{"type":"Feature","geometry":{"type":"Point","coordinates":["-3.1673730686397","55.966640134447"]},"properties":{"Site_Name":"Academy Park","RecyclingS":"Leith Academy - No. 20 Academy Park","BankTypeNa":"Packaging","Latitude":"55.966640134447","Longitude":"-3.1673730686397"}},{"type":"Feature","geometry":{"type":"Point","coordinates":["-3.1680738600162","55.968098118433"]},"properties":{"Site_Name":"Academy Park","RecyclingS":"No. 4 Academy Park","BankTypeNa":"Packaging","Latitude":"55.968098118433","Longitude":"-3.1680738600162"}},{"type":"Feature","geometry":{"type":"Point","coordinates":["-3.1680738600162","55.968098118433"]},"properties":{"Site_Name":"Academy Park","RecyclingS":"No. 4 Academy Park","BankTypeNa":"Paper Bank","Latitude":"55.968098118433","Longitude":"-3.1680738600162"}},{"type":"Feature","geometry":{"type":"Point","coordinates":["-3.1673213912605","55.967584093088"]},"properties":{"Site_Name":"Academy Park","RecyclingS":"Opposite No.6 Academy Park","BankTypeNa":"Paper Bank","Latitude":"55.967584093088","Longitude":"-3.1673213912605"}},{"type":"Feature","geometry":{"type":"Point","coordinates":["-3.1673213912605","55.967584093088"]},"properties":{"Site_Name":"Academy Park","RecyclingS":"Opposite No.6 Academy Park","BankTypeNa":"Packaging","Latitude":"55.967584093088","Longitude":"-3.1673213912605"}},{"type":"Feature","geometry":{"type":"Point","coordinates":["-3.1673213912605","55.967584093088"]},"properties":{"Site_Name":"Academy Park","RecyclingS":"Opposite No.6 Academy Park","BankTypeNa":"Bottle Bank - Mixed","Latitude":"55.967584093088","Longitude":"-3.1673213912605"}},{"type":"Feature","geometry":{"type":"Point","coordinates":["-3.1673730686397","55.966640134447"]},"properties":{"Site_Name":"Academy Park","RecyclingS":"Leith Academy - No. 20 Academy Park","BankTypeNa":"Packaging","Latitude":"55.966640134447","Longitude":"-3.1673730686397"}},{"type":"Feature","geometry":{"type":"Point","coordinates":["-3.1673730686397","55.966640134447"]},"properties":{"Site_Name":"Academy Park","RecyclingS":"Leith Academy - No. 20 Academy Park","BankTypeNa":"Packaging","Latitude":"55.966640134447","Longitude":"-3.1673730686397"}},{"type":"Feature","geometry":{"type":"Point","coordinates":["-3.1673730686397","55.966640134447"]},"properties":{"Site_Name":"Academy Park","RecyclingS":"Leith Academy - No. 20 Academy Park","BankTypeNa":"Paper Bank","Latitude":"55.966640134447","Longitude":"-3.1673730686397"}},{"type":"Feature","geometry":{"type":"Point","coordinates":["-3.1670273512178","55.967928323579"]},"properties":{"Site_Name":"Academy Street","RecyclingS":"No. 3 Academy Street","BankTypeNa":"Paper Bank","Latitude":"55.967928323579","Longitude":"-3.1670273512178"}},{"type":"Feature","geometry":{"type":"Point","coordinates":["-3.167457912127","55.967861348023"]},"properties":{"Site_Name":"Academy Street","RecyclingS":"No. 4 Academy Street","BankTypeNa":"Packaging","Latitude":"55.967861348023","Longitude":"-3.167457912127"}},{"type":"Feature","geometry":{"type":"Point","coordinates":["-3.167457912127","55.967861348023"]},"properties":{"Site_Name":"Academy Street","RecyclingS":"No. 4 Academy Street","BankTypeNa":"Packaging","Latitude":"55.967861348023","Longitude":"-3.167457912127"}},{"type":"Feature","geometry":{"type":"Point","coordinates":["-3.2084721017489","55.938029557288"]},"properties":{"Site_Name":"Admiral Terrace","RecyclingS":"Boroughmuir High School - No. 26 Viewforth","BankTypeNa":"Paper Bank","Latitude":"55.938029557288","Longitude":"-3.2084721017489"}},{"type":"Feature","geometry":{"type":"Point","coordinates":["-3.178931400131","55.976360173982"]},"properties":{"Site_Name":"Admiralty Street","RecyclingS":"No. 6 Admiralty Street","BankTypeNa":"Paper Bank","Latitude":"55.976360173982","Longitude":"-3.178931400131"}},{"type":"Feature","geometry":{"type":"Point","coordinates":["-3.178931400131","55.976360173982"]},"properties":{"Site_Name":"Admiralty Street","RecyclingS":"No. 6 Admiralty Street","BankTypeNa":"Paper Bank","Latitude":"55.976360173982","Longitude":"-3.178931400131"}},{"type":"Feature","geometry":{"type":"Point","coordinates":["-3.178931400131","55.976360173982"]},"properties":{"Site_Name":"Admiralty Street","RecyclingS":"No. 6 Admiralty Street","BankTypeNa":"Packaging","Latitude":"55.976360173982","Longitude":"-3.178931400131"}},{"type":"Feature","geometry":{"type":"Point","coordinates":["-3.178931400131","55.976360173982"]},"properties":{"Site_Name":"Admiralty Street","RecyclingS":"No. 6 Admiralty Street","BankTypeNa":"Packaging","Latitude":"55.976360173982","Longitude":"-3.178931400131"}},{"type":"Feature","geometry":{"type":"Point","coordinates":["-3.2880882215346","55.952561272731"]},"properties":{"Site_Name":"Alan Breck Gardens","RecyclingS":"No. 7 Alan Breck Gardens","BankTypeNa":"Packaging","Latitude":"55.952561272731","Longitude":"-3.2880882215346"}},{"type":"Feature","geometry":{"type":"Point","coordinates":["-3.2880882215346","55.952561272731"]},"properties":{"Site_Name":"Alan Breck Gardens","RecyclingS":"No. 7 Alan Breck Gardens","BankTypeNa":"Paper Bank","Latitude":"55.952561272731","Longitude":"-3.2880882215346"}},{"type":"Feature","geometry":{"type":"Point","coordinates":["-3.1740236239785","55.962470620217"]},"properties":{"Site_Name":"Albert Street","RecyclingS":"RHS No. 69 Albert Street","BankTypeNa":"Paper Bank","Latitude":"55.962470620217","Longitude":"-3.1740236239785"}},{"type":"Feature","geometry":{"type":"Point","coordinates":["-3.1728841444541","55.962400601001"]},"properties":{"Site_Name":"Albert Street","RecyclingS":"Opposite 154 - 158 Albert Street","BankTypeNa":"Packaging","Latitude":"55.962400601001","Longitude":"-3.1728841444541"}},{"type":"Feature","geometry":{"type":"Point","coordinates":["-3.1740236239785","55.962470620217"]},"properties":{"Site_Name":"Albert Street","RecyclingS":"RHS No. 69 Albert Street","BankTypeNa":"Packaging","Latitude":"55.962470620217","Longitude":"-3.1740236239785"}},{"type":"Feature","geometry":{"type":"Point","coordinates":["-3.1774857649795","55.962536430206"]},"properties":{"Site_Name":"Albert Street","RecyclingS":"No. 13 Albert Street","BankTypeNa":"Packaging","Latitude":"55.962536430206","Longitude":"-3.1774857649795"}},{"type":"Feature","geometry":{"type":"Point","coordinates":["-3.1740236239785","55.962470620217"]},"properties":{"Site_Name":"Albert Street","RecyclingS":"RHS No. 69 Albert Street","BankTypeNa":"Packaging","Latitude":"55.962470620217","Longitude":"-3.1740236239785"}},{"type":"Feature","geometry":{"type":"Point","coordinates":["-3.1745390831916","55.962564548543"]},"properties":{"Site_Name":"Albert Street","RecyclingS":"RHS No 96 Albert Street","BankTypeNa":"Paper Bank","Latitude":"55.962564548543","Longitude":"-3.1745390831916"}},{"type":"Feature","geometry":{"type":"Point","coordinates":["-3.1728841444541","55.962400601001"]},"properties":{"Site_Name":"Albert Street","RecyclingS":"Opposite 154 - 158 Albert Street","BankTypeNa":"Packaging","Latitude":"55.962400601001","Longitude":"-3.1728841444541"}},{"type":"Feature","geometry":{"type":"Point","coordinates":["-3.1728841444541","55.962400601001"]},"properties":{"Site_Name":"Albert Street","RecyclingS":"Opposite 154 - 158 Albert Street","BankTypeNa":"Paper Bank","Latitude":"55.962400601001","Longitude":"-3.1728841444541"}},{"type":"Feature","geometry":{"type":"Point","coordinates":["-3.1774857649795","55.962536430206"]},"properties":{"Site_Name":"Albert Street","RecyclingS":"No. 13 Albert Street","BankTypeNa":"Packaging","Latitude":"55.962536430206","Longitude":"-3.1774857649795"}},{"type":"Feature","geometry":{"type":"Point","coordinates":["-3.1774857649795","55.962536430206"]},"properties":{"Site_Name":"Albert Street","RecyclingS":"No. 13 Albert Street","BankTypeNa":"Paper Bank","Latitude":"55.962536430206","Longitude":"-3.1774857649795"}},{"type":"Feature","geometry":{"type":"Point","coordinates":["-3.1769116949442","55.962622782672"]},"properties":{"Site_Name":"Albert Street","RecyclingS":"LHS No. 52 Albert Street","BankTypeNa":"Paper Bank","Latitude":"55.962622782672","Longitude":"-3.1769116949442"}},{"type":"Feature","geometry":{"type":"Point","coordinates":["-3.1654958159009","55.960152454107"]},"properties":{"Site_Name":"Albion Gardens","RecyclingS":"No. 6 Albion Gardens","BankTypeNa":"Bottle Bank - Mixed","Latitude":"55.960152454107","Longitude":"-3.1654958159009"}},{"type":"Feature","geometry":{"type":"Point","coordinates":["-3.1654958159009","55.960152454107"]},"properties":{"Site_Name":"Albion Gardens","RecyclingS":"No. 6 Albion Gardens","BankTypeNa":"Paper Bank","Latitude":"55.960152454107","Longitude":"-3.1654958159009"}},{"type":"Feature","geometry":{"type":"Point","coordinates":["-3.1654958159009","55.960152454107"]},"properties":{"Site_Name":"Albion Gardens","RecyclingS":"No. 6 Albion Gardens","BankTypeNa":"Paper Bank","Latitude":"55.960152454107","Longitude":"-3.1654958159009"}},{"type":"Feature","geometry":{"type":"Point","coordinates":["-3.1654958159009","55.960152454107"]},"properties":{"Site_Name":"Albion Gardens","RecyclingS":"No. 6 Albion Gardens","BankTypeNa":"Packaging","Latitude":"55.960152454107","Longitude":"-3.1654958159009"}},{"type":"Feature","geometry":{"type":"Point","coordinates":["-3.1654958159009","55.960152454107"]},"properties":{"Site_Name":"Albion Gardens","RecyclingS":"No. 6 Albion Gardens","BankTypeNa":"Packaging","Latitude":"55.960152454107","Longitude":"-3.1654958159009"}},{"type":"Feature","geometry":{"type":"Point","coordinates":["-3.1654958159009","55.960152454107"]},"properties":{"Site_Name":"Albion Gardens","RecyclingS":"No. 6 Albion Gardens","BankTypeNa":"Packaging","Latitude":"55.960152454107","Longitude":"-3.1654958159009"}},{"type":"Feature","geometry":{"type":"Point","coordinates":["-3.1654958159009","55.960152454107"]},"properties":{"Site_Name":"Albion Gardens","RecyclingS":"No. 6 Albion Gardens","BankTypeNa":"Packaging","Latitude":"55.960152454107","Longitude":"-3.1654958159009"}},{"type":"Feature","geometry":{"type":"Point","coordinates":["-3.1654958159009","55.960152454107"]},"properties":{"Site_Name":"Albion Gardens","RecyclingS":"No. 6 Albion Gardens","BankTypeNa":"Packaging","Latitude":"55.960152454107","Longitude":"-3.1654958159009"}},{"type":"Feature","geometry":{"type":"Point","coordinates":["-3.1654958159009","55.960152454107"]},"properties":{"Site_Name":"Albion Gardens","RecyclingS":"No. 6 Albion Gardens","BankTypeNa":"Paper Bank","Latitude":"55.960152454107","Longitude":"-3.1654958159009"}},{"type":"Feature","geometry":{"type":"Point","coordinates":["-3.1654958159009","55.960152454107"]},"properties":{"Site_Name":"Albion Gardens","RecyclingS":"No. 6 Albion Gardens","BankTypeNa":"Bottle Bank - Mixed","Latitude":"55.960152454107","Longitude":"-3.1654958159009"}},{"type":"Feature","geometry":{"type":"Point","coordinates":["-3.1654958159009","55.960152454107"]},"properties":{"Site_Name":"Albion Gardens","RecyclingS":"No. 6 Albion Gardens","BankTypeNa":"Textile Bank","Latitude":"55.960152454107","Longitude":"-3.1654958159009"}},{"type":"Feature","geometry":{"type":"Point","coordinates":["-3.1654958159009","55.960152454107"]},"properties":{"Site_Name":"Albion Gardens","RecyclingS":"No. 6 Albion Gardens","BankTypeNa":"Packaging","Latitude":"55.960152454107","Longitude":"-3.1654958159009"}},{"type":"Feature","geometry":{"type":"Point","coordinates":["-3.1694253011421","55.96191231532"]},"properties":{"Site_Name":"Albion Road","RecyclingS":"LHS No 31 Albion Road","BankTypeNa":"Packaging","Latitude":"55.96191231532","Longitude":"-3.1694253011421"}},{"type":"Feature","geometry":{"type":"Point","coordinates":["-3.16745937699","55.961526610002"]},"properties":{"Site_Name":"Albion Road","RecyclingS":"Opposite No. 48 Albion Road - Community Centre","BankTypeNa":"Paper Bank","Latitude":"55.961526610002","Longitude":"-3.16745937699"}},{"type":"Feature","geometry":{"type":"Point","coordinates":["-3.16745937699","55.961526610002"]},"properties":{"Site_Name":"Albion Road","RecyclingS":"Opposite No. 48 Albion Road - Community Centre","BankTypeNa":"Packaging","Latitude":"55.961526610002","Longitude":"-3.16745937699"}},{"type":"Feature","geometry":{"type":"Point","coordinates":["-3.1684791006016","55.961876363034"]},"properties":{"Site_Name":"Albion Road","RecyclingS":"Outside No 30 Albion Road","BankTypeNa":"Paper Bank","Latitude":"55.961876363034","Longitude":"-3.1684791006016"}},{"type":"Feature","geometry":{"type":"Point","coordinates":["-3.1694253011421","55.96191231532"]},"properties":{"Site_Name":"Albion Road","RecyclingS":"LHS No 31 Albion Road","BankTypeNa":"Paper Bank","Latitude":"55.96191231532","Longitude":"-3.1694253011421"}},{"type":"Feature","geometry":{"type":"Point","coordinates":["-3.1684791006016","55.961876363034"]},"properties":{"Site_Name":"Albion Road","RecyclingS":"Outside No 30 Albion Road","BankTypeNa":"Packaging","Latitude":"55.961876363034","Longitude":"-3.1684791006016"}},{"type":"Feature","geometry":{"type":"Point","coordinates":["-3.1674624074512","55.961095280698"]},"properties":{"Site_Name":"Albion Terrace","RecyclingS":"Outside No 2 Albion Terrace","BankTypeNa":"Paper Bank","Latitude":"55.961095280698","Longitude":"-3.1674624074512"}},{"type":"Feature","geometry":{"type":"Point","coordinates":["-3.2226559032734","55.911085718656"]},"properties":{"Site_Name":"Aldermoor Avenue","RecyclingS":"Block 1","BankTypeNa":"Packaging","Latitude":"55.911085718656","Longitude":"-3.2226559032734"}},{"type":"Feature","geometry":{"type":"Point","coordinates":["-3.2227129307229","55.9113726906"]},"properties":{"Site_Name":"Aldermoor Avenue","RecyclingS":"Block 6","BankTypeNa":"Packaging","Latitude":"55.9113726906","Longitude":"-3.2227129307229"}},{"type":"Feature","geometry":{"type":"Point","coordinates":["-3.2223131005916","55.911376659694"]},"properties":{"Site_Name":"Aldermoor Avenue","RecyclingS":"Block 7","BankTypeNa":"Packaging","Latitude":"55.911376659694","Longitude":"-3.2223131005916"}},{"type":"Feature","geometry":{"type":"Point","coordinates":["-3.2410919497174","55.936312500923"]},"properties":{"Site_Name":"Alexander Drive","RecyclingS":"LHS No. 2 Alexander Drive","BankTypeNa":"Packaging","Latitude":"55.936312500923","Longitude":"-3.2410919497174"}},{"type":"Feature","geometry":{"type":"Point","coordinates":["-3.2410919497174","55.936312500923"]},"properties":{"Site_Name":"Alexander Drive","RecyclingS":"LHS No. 2 Alexander Drive","BankTypeNa":"Paper Bank","Latitude":"55.936312500923","Longitude":"-3.2410919497174"}},{"type":"Feature","geometry":{"type":"Point","coordinates":["-3.241015667251","55.9364300816"]},"properties":{"Site_Name":"Alexander Drive","RecyclingS":"6-8 Alexander Drive","BankTypeNa":"Bottle Bank - Mixed","Latitude":"55.9364300816","Longitude":"-3.241015667251"}},{"type":"Feature","geometry":{"type":"Point","coordinates":["-3.178097049437","55.961039005043"]},"properties":{"Site_Name":"Allanfield","RecyclingS":"No. 19 Allanfield","BankTypeNa":"Bottle Bank - Mixed","Latitude":"55.961039005043","Longitude":"-3.178097049437"}},{"type":"Feature","geometry":{"type":"Point","coordinates":["-3.1749648479285","55.961284558012"]},"properties":{"Site_Name":"Allanfield","RecyclingS":"No. 1 Allanfield","BankTypeNa":"Textile Bank","Latitude":"55.961284558012","Longitude":"-3.1749648479285"}},{"type":"Feature","geometry":{"type":"Point","coordinates":["-3.1749648479285","55.961284558012"]},"properties":{"Site_Name":"Allanfield","RecyclingS":"No. 1 Allanfield","BankTypeNa":"Packaging","Latitude":"55.961284558012","Longitude":"-3.1749648479285"}},{"type":"Feature","geometry":{"type":"Point","coordinates":["-3.1749648479285","55.961284558012"]},"properties":{"Site_Name":"Allanfield","RecyclingS":"No. 1 Allanfield","BankTypeNa":"Paper Bank","Latitude":"55.961284558012","Longitude":"-3.1749648479285"}},{"type":"Feature","geometry":{"type":"Point","coordinates":["-3.1749648479285","55.961284558012"]},"properties":{"Site_Name":"Allanfield","RecyclingS":"No. 1 Allanfield","BankTypeNa":"Bottle Bank - Mixed","Latitude":"55.961284558012","Longitude":"-3.1749648479285"}},{"type":"Feature","geometry":{"type":"Point","coordinates":["-3.178097049437","55.961039005043"]},"properties":{"Site_Name":"Allanfield","RecyclingS":"No. 19 Allanfield","BankTypeNa":"Packaging","Latitude":"55.961039005043","Longitude":"-3.178097049437"}},{"type":"Feature","geometry":{"type":"Point","coordinates":["-3.178097049437","55.961039005043"]},"properties":{"Site_Name":"Allanfield","RecyclingS":"No. 19 Allanfield","BankTypeNa":"Textile Bank","Latitude":"55.961039005043","Longitude":"-3.178097049437"}},{"type":"Feature","geometry":{"type":"Point","coordinates":["-3.178097049437","55.961039005043"]},"properties":{"Site_Name":"Allanfield","RecyclingS":"No. 19 Allanfield","BankTypeNa":"Packaging","Latitude":"55.961039005043","Longitude":"-3.178097049437"}},{"type":"Feature","geometry":{"type":"Point","coordinates":["-3.178097049437","55.961039005043"]},"properties":{"Site_Name":"Allanfield","RecyclingS":"No. 19 Allanfield","BankTypeNa":"Paper Bank","Latitude":"55.961039005043","Longitude":"-3.178097049437"}},{"type":"Feature","geometry":{"type":"Point","coordinates":["-3.1738910897344","55.961267834278"]},"properties":{"Site_Name":"Allanfield Place","RecyclingS":"Opposite No. 5 Allanfield Place","BankTypeNa":"Paper Bank","Latitude":"55.961267834278","Longitude":"-3.1738910897344"}},{"type":"Feature","geometry":{"type":"Point","coordinates":["-3.173524125855","55.961316256365"]},"properties":{"Site_Name":"Allanfield Place","RecyclingS":"No. 6 Allanfield Place","BankTypeNa":"Paper Bank","Latitude":"55.961316256365","Longitude":"-3.173524125855"}},{"type":"Feature","geometry":{"type":"Point","coordinates":["-3.173524125855","55.961316256365"]},"properties":{"Site_Name":"Allanfield Place","RecyclingS":"No. 6 Allanfield Place","BankTypeNa":"Packaging","Latitude":"55.961316256365","Longitude":"-3.173524125855"}},{"type":"Feature","geometry":{"type":"Point","coordinates":["-3.1744629697699","55.961109633165"]},"properties":{"Site_Name":"Allanfield Place","RecyclingS":"No. 3 Allanfield Place","BankTypeNa":"Packaging","Latitude":"55.961109633165","Longitude":"-3.1744629697699"}},{"type":"Feature","geometry":{"type":"Point","coordinates":["-3.1744629697699","55.961109633165"]},"properties":{"Site_Name":"Allanfield Place","RecyclingS":"No. 3 Allanfield Place","BankTypeNa":"Paper Bank","Latitude":"55.961109633165","Longitude":"-3.1744629697699"}},{"type":"Feature","geometry":{"type":"Point","coordinates":["-3.1738910897344","55.961267834278"]},"properties":{"Site_Name":"Allanfield Place","RecyclingS":"Opposite No. 5 Allanfield Place","BankTypeNa":"Bottle Bank - Mixed","Latitude":"55.961267834278","Longitude":"-3.1738910897344"}},{"type":"Feature","geometry":{"type":"Point","coordinates":["-3.1744629697699","55.961109633165"]},"properties":{"Site_Name":"Allanfield Place","RecyclingS":"No. 3 Allanfield Place","BankTypeNa":"Packaging","Latitude":"55.961109633165","Longitude":"-3.1744629697699"}},{"type":"Feature","geometry":{"type":"Point","coordinates":["-3.1744629697699","55.961109633165"]},"properties":{"Site_Name":"Allanfield Place","RecyclingS":"No. 3 Allanfield Place","BankTypeNa":"Bottle Bank - Mixed","Latitude":"55.961109633165","Longitude":"-3.1744629697699"}},{"type":"Feature","geometry":{"type":"Point","coordinates":["-3.1744629697699","55.961109633165"]},"properties":{"Site_Name":"Allanfield Place","RecyclingS":"No. 3 Allanfield Place","BankTypeNa":"Bottle Bank - Mixed","Latitude":"55.961109633165","Longitude":"-3.1744629697699"}},{"type":"Feature","geometry":{"type":"Point","coordinates":["-3.1744629697699","55.961109633165"]},"properties":{"Site_Name":"Allanfield Place","RecyclingS":"No. 3 Allanfield Place","BankTypeNa":"Packaging","Latitude":"55.961109633165","Longitude":"-3.1744629697699"}},{"type":"Feature","geometry":{"type":"Point","coordinates":["-3.1744629697699","55.961109633165"]},"properties":{"Site_Name":"Allanfield Place","RecyclingS":"No. 3 Allanfield Place","BankTypeNa":"Packaging","Latitude":"55.961109633165","Longitude":"-3.1744629697699"}},{"type":"Feature","geometry":{"type":"Point","coordinates":["-3.173524125855","55.961316256365"]},"properties":{"Site_Name":"Allanfield Place","RecyclingS":"No. 6 Allanfield Place","BankTypeNa":"Bottle Bank - Mixed","Latitude":"55.961316256365","Longitude":"-3.173524125855"}},{"type":"Feature","geometry":{"type":"Point","coordinates":["-3.1738910897344","55.961267834278"]},"properties":{"Site_Name":"Allanfield Place","RecyclingS":"Opposite No. 5 Allanfield Place","BankTypeNa":"Paper Bank","Latitude":"55.961267834278","Longitude":"-3.1738910897344"}},{"type":"Feature","geometry":{"type":"Point","coordinates":["-3.1738910897344","55.961267834278"]},"properties":{"Site_Name":"Allanfield Place","RecyclingS":"Opposite No. 5 Allanfield Place","BankTypeNa":"Packaging","Latitude":"55.961267834278","Longitude":"-3.1738910897344"}},{"type":"Feature","geometry":{"type":"Point","coordinates":["-3.1738910897344","55.961267834278"]},"properties":{"Site_Name":"Allanfield Place","RecyclingS":"Opposite No. 5 Allanfield Place","BankTypeNa":"Packaging","Latitude":"55.961267834278","Longitude":"-3.1738910897344"}},{"type":"Feature","geometry":{"type":"Point","coordinates":["-3.1738910897344","55.961267834278"]},"properties":{"Site_Name":"Allanfield Place","RecyclingS":"Opposite No. 5 Allanfield Place","BankTypeNa":"Packaging","Latitude":"55.961267834278","Longitude":"-3.1738910897344"}},{"type":"Feature","geometry":{"type":"Point","coordinates":["-3.1744629697699","55.961109633165"]},"properties":{"Site_Name":"Allanfield Place","RecyclingS":"No. 3 Allanfield Place","BankTypeNa":"Paper Bank","Latitude":"55.961109633165","Longitude":"-3.1744629697699"}},{"type":"Feature","geometry":{"type":"Point","coordinates":["-3.1744629697699","55.961109633165"]},"properties":{"Site_Name":"Allanfield Place","RecyclingS":"No. 3 Allanfield Place","BankTypeNa":"Packaging","Latitude":"55.961109633165","Longitude":"-3.1744629697699"}},{"type":"Feature","geometry":{"type":"Point","coordinates":["-3.1744629697699","55.961109633165"]},"properties":{"Site_Name":"Allanfield Place","RecyclingS":"No. 3 Allanfield Place","BankTypeNa":"Paper Bank","Latitude":"55.961109633165","Longitude":"-3.1744629697699"}},{"type":"Feature","geometry":{"type":"Point","coordinates":["-3.173524125855","55.961316256365"]},"properties":{"Site_Name":"Allanfield Place","RecyclingS":"No. 6 Allanfield Place","BankTypeNa":"Packaging","Latitude":"55.961316256365","Longitude":"-3.173524125855"}},{"type":"Feature","geometry":{"type":"Point","coordinates":["-3.1843470616271","55.960080554482"]},"properties":{"Site_Name":"Annandale Street","RecyclingS":"Nos. 19-23 Annandale Street","BankTypeNa":"Paper Bank","Latitude":"55.960080554482","Longitude":"-3.1843470616271"}},{"type":"Feature","geometry":{"type":"Point","coordinates":["-3.1839641089244","55.960129161451"]},"properties":{"Site_Name":"Annandale Street","RecyclingS":"16 & 18 Annandale Street","BankTypeNa":"Paper Bank","Latitude":"55.960129161451","Longitude":"-3.1839641089244"}},{"type":"Feature","geometry":{"type":"Point","coordinates":["-3.1843470616271","55.960080554482"]},"properties":{"Site_Name":"Annandale Street","RecyclingS":"Nos. 19-23 Annandale Street","BankTypeNa":"Bottle Bank - Mixed","Latitude":"55.960080554482","Longitude":"-3.1843470616271"}},{"type":"Feature","geometry":{"type":"Point","coordinates":["-3.1843470616271","55.960080554482"]},"properties":{"Site_Name":"Annandale Street","RecyclingS":"Nos. 19-23 Annandale Street","BankTypeNa":"Paper Bank","Latitude":"55.960080554482","Longitude":"-3.1843470616271"}},{"type":"Feature","geometry":{"type":"Point","coordinates":["-3.1839641089244","55.960129161451"]},"properties":{"Site_Name":"Annandale Street","RecyclingS":"16 & 18 Annandale Street","BankTypeNa":"Packaging","Latitude":"55.960129161451","Longitude":"-3.1839641089244"}},{"type":"Feature","geometry":{"type":"Point","coordinates":["-3.190178863239","55.97942394566"]},"properties":{"Site_Name":"Annfield Street","RecyclingS":"No. 4 Annfield Street","BankTypeNa":"Paper Bank","Latitude":"55.97942394566","Longitude":"-3.190178863239"}},{"type":"Feature","geometry":{"type":"Point","coordinates":["-3.2405169863637","55.92884230678"]},"properties":{"Site_Name":"Appin Lane","RecyclingS":"Block 1","BankTypeNa":"Packaging","Latitude":"55.92884230678","Longitude":"-3.2405169863637"}},{"type":"Feature","geometry":{"type":"Point","coordinates":["-3.2401918147519","55.928683840905"]},"properties":{"Site_Name":"Appin Lane","RecyclingS":"Block 4","BankTypeNa":"Packaging","Latitude":"55.928683840905","Longitude":"-3.2401918147519"}},{"type":"Feature","geometry":{"type":"Point","coordinates":["-3.2393681801929","55.929455903387"]},"properties":{"Site_Name":"Appin Place","RecyclingS":"In Bin Shelter","BankTypeNa":"Packaging","Latitude":"55.929455903387","Longitude":"-3.2393681801929"}},{"type":"Feature","geometry":{"type":"Point","coordinates":["-3.2393681801929","55.929455903387"]},"properties":{"Site_Name":"Appin Place","RecyclingS":"In Bin Shelter","BankTypeNa":"Packaging","Latitude":"55.929455903387","Longitude":"-3.2393681801929"}},{"type":"Feature","geometry":{"type":"Point","coordinates":["-3.2374870231393","55.930193660603"]},"properties":{"Site_Name":"Appin Street","RecyclingS":"No. 5 Appin Street","BankTypeNa":"Paper Bank","Latitude":"55.930193660603","Longitude":"-3.2374870231393"}},{"type":"Feature","geometry":{"type":"Point","coordinates":["-3.237015298859","55.930458979774"]},"properties":{"Site_Name":"Appin Street","RecyclingS":"No. 4 Appin Street","BankTypeNa":"Paper Bank","Latitude":"55.930458979774","Longitude":"-3.237015298859"}},{"type":"Feature","geometry":{"type":"Point","coordinates":["-3.2368904396858","55.930559074683"]},"properties":{"Site_Name":"Appin Street","RecyclingS":"No.  3 Appin Street","BankTypeNa":"Paper Bank","Latitude":"55.930559074683","Longitude":"-3.2368904396858"}},{"type":"Feature","geometry":{"type":"Point","coordinates":["-3.2365012879461","55.930904432695"]},"properties":{"Site_Name":"Appin Street","RecyclingS":"No. 1 Appin Street","BankTypeNa":"Paper Bank","Latitude":"55.930904432695","Longitude":"-3.2365012879461"}},{"type":"Feature","geometry":{"type":"Point","coordinates":["-3.2359135834052","55.932554687021"]},"properties":{"Site_Name":"Appin Terrace","RecyclingS":"Opposite No. 1 Appin Terrace","BankTypeNa":"Packaging","Latitude":"55.932554687021","Longitude":"-3.2359135834052"}},{"type":"Feature","geometry":{"type":"Point","coordinates":["-3.2359135834052","55.932554687021"]},"properties":{"Site_Name":"Appin Terrace","RecyclingS":"Opposite No. 1 Appin Terrace","BankTypeNa":"Paper Bank","Latitude":"55.932554687021","Longitude":"-3.2359135834052"}},{"type":"Feature","geometry":{"type":"Point","coordinates":["-3.2147339581415","55.969803589933"]},"properties":{"Site_Name":"Arboretum Road","RecyclingS":"Edinburgh Academy Junior School - No. 10 Arboretum Road","BankTypeNa":"Paper Bank","Latitude":"55.969803589933","Longitude":"-3.2147339581415"}},{"type":"Feature","geometry":{"type":"Point","coordinates":["-3.2147339581415","55.969803589933"]},"properties":{"Site_Name":"Arboretum Road","RecyclingS":"Edinburgh Academy Junior School - No. 10 Arboretum Road","BankTypeNa":"Packaging","Latitude":"55.969803589933","Longitude":"-3.2147339581415"}},{"type":"Feature","geometry":{"type":"Point","coordinates":["-3.1962472865795","55.938229735876"]},"properties":{"Site_Name":"Arden Street","RecyclingS":"LHS No 1 Arden Street","BankTypeNa":"Packaging","Latitude":"55.938229735876","Longitude":"-3.1962472865795"}},{"type":"Feature","geometry":{"type":"Point","coordinates":["-3.1962472865795","55.938229735876"]},"properties":{"Site_Name":"Arden Street","RecyclingS":"LHS No 1 Arden Street","BankTypeNa":"Paper Bank","Latitude":"55.938229735876","Longitude":"-3.1962472865795"}},{"type":"Feature","geometry":{"type":"Point","coordinates":["-3.1958268659003","55.936535558504"]},"properties":{"Site_Name":"Arden Street","RecyclingS":"RHS 69 Arden Street","BankTypeNa":"Paper Bank","Latitude":"55.936535558504","Longitude":"-3.1958268659003"}},{"type":"Feature","geometry":{"type":"Point","coordinates":["-3.1962472865795","55.938229735876"]},"properties":{"Site_Name":"Arden Street","RecyclingS":"LHS No 1 Arden Street","BankTypeNa":"Packaging","Latitude":"55.938229735876","Longitude":"-3.1962472865795"}},{"type":"Feature","geometry":{"type":"Point","coordinates":["-3.1958268659003","55.936535558504"]},"properties":{"Site_Name":"Arden Street","RecyclingS":"RHS 69 Arden Street","BankTypeNa":"Packaging","Latitude":"55.936535558504","Longitude":"-3.1958268659003"}},{"type":"Feature","geometry":{"type":"Point","coordinates":["-3.2252714325973","55.938717248637"]},"properties":{"Site_Name":"Ardmillan Place","RecyclingS":"Opposite No. 4 - 6 Ardmillan Place","BankTypeNa":"Paper Bank","Latitude":"55.938717248637","Longitude":"-3.2252714325973"}},{"type":"Feature","geometry":{"type":"Point","coordinates":["-3.2252714325973","55.938717248637"]},"properties":{"Site_Name":"Ardmillan Place","RecyclingS":"Opposite No. 4 - 6 Ardmillan Place","BankTypeNa":"Packaging","Latitude":"55.938717248637","Longitude":"-3.2252714325973"}},{"type":"Feature","geometry":{"type":"Point","coordinates":["-3.2892378245944","55.951974171955"]},"properties":{"Site_Name":"Ardshiel Avenue","RecyclingS":"LHS No. 17 Ardshiel Avenue","BankTypeNa":"Paper Bank","Latitude":"55.951974171955","Longitude":"-3.2892378245944"}},{"type":"Feature","geometry":{"type":"Point","coordinates":["-3.2892378245944","55.951974171955"]},"properties":{"Site_Name":"Ardshiel Avenue","RecyclingS":"LHS No. 17 Ardshiel Avenue","BankTypeNa":"Packaging","Latitude":"55.951974171955","Longitude":"-3.2892378245944"}},{"type":"Feature","geometry":{"type":"Point","coordinates":["-3.2909979746378","55.951928786288"]},"properties":{"Site_Name":"Ardshiel Avenue","RecyclingS":"Drumbrae Primary School","BankTypeNa":"Paper Bank","Latitude":"55.951928786288","Longitude":"-3.2909979746378"}},{"type":"Feature","geometry":{"type":"Point","coordinates":["-3.1918410917988","55.939674177347"]},"properties":{"Site_Name":"Argyle Park Terrace","RecyclingS":"Opposite No 5 Argyle Park Terrace","BankTypeNa":"Packaging","Latitude":"55.939674177347","Longitude":"-3.1918410917988"}},{"type":"Feature","geometry":{"type":"Point","coordinates":["-3.1918410917988","55.939674177347"]},"properties":{"Site_Name":"Argyle Park Terrace","RecyclingS":"Opposite No 5 Argyle Park Terrace","BankTypeNa":"Paper Bank","Latitude":"55.939674177347","Longitude":"-3.1918410917988"}},{"type":"Feature","geometry":{"type":"Point","coordinates":["-3.1773002642619","55.965395571407"]},"properties":{"Site_Name":"Arthur Street","RecyclingS":"Nos. 9-13 Arthur Street","BankTypeNa":"Paper Bank","Latitude":"55.965395571407","Longitude":"-3.1773002642619"}},{"type":"Feature","geometry":{"type":"Point","coordinates":["-3.1773002642619","55.965395571407"]},"properties":{"Site_Name":"Arthur Street","RecyclingS":"Nos. 9-13 Arthur Street","BankTypeNa":"Bottle Bank - Mixed","Latitude":"55.965395571407","Longitude":"-3.1773002642619"}},{"type":"Feature","geometry":{"type":"Point","coordinates":["-3.3857922767396","55.98554799944"]},"properties":{"Site_Name":"Ashburnham Road | South Queensferry","RecyclingS":"Queensferry High School - Ashburnham Road","BankTypeNa":"Packaging","Latitude":"55.98554799944","Longitude":"-3.3857922767396"}},{"type":"Feature","geometry":{"type":"Point","coordinates":["-3.3857922767396","55.98554799944"]},"properties":{"Site_Name":"Ashburnham Road | South Queensferry","RecyclingS":"Queensferry High School - Ashburnham Road","BankTypeNa":"Paper Bank","Latitude":"55.98554799944","Longitude":"-3.3857922767396"}},{"type":"Feature","geometry":{"type":"Point","coordinates":["-3.3857922767396","55.98554799944"]},"properties":{"Site_Name":"Ashburnham Road | South Queensferry","RecyclingS":"Queensferry High School - Ashburnham Road","BankTypeNa":"Packaging","Latitude":"55.98554799944","Longitude":"-3.3857922767396"}},{"type":"Feature","geometry":{"type":"Point","coordinates":["-3.3857922767396","55.98554799944"]},"properties":{"Site_Name":"Ashburnham Road | South Queensferry","RecyclingS":"Queensferry High School - Ashburnham Road","BankTypeNa":"Paper Bank","Latitude":"55.98554799944","Longitude":"-3.3857922767396"}},{"type":"Feature","geometry":{"type":"Point","coordinates":["-3.3857922767396","55.98554799944"]},"properties":{"Site_Name":"Ashburnham Road | South Queensferry","RecyclingS":"Queensferry High School - Ashburnham Road","BankTypeNa":"Packaging","Latitude":"55.98554799944","Longitude":"-3.3857922767396"}},{"type":"Feature","geometry":{"type":"Point","coordinates":["-3.227201363008","55.931401781776"]},"properties":{"Site_Name":"Ashley Drive","RecyclingS":"Ashley Drive - Blank Wall","BankTypeNa":"Paper Bank","Latitude":"55.931401781776","Longitude":"-3.227201363008"}},{"type":"Feature","geometry":{"type":"Point","coordinates":["-3.1843109700062","55.969910977207"]},"properties":{"Site_Name":"Ashley Place","RecyclingS":"Nos. 16 - 30 Ashley Place","BankTypeNa":"Paper Bank","Latitude":"55.969910977207","Longitude":"-3.1843109700062"}},{"type":"Feature","geometry":{"type":"Point","coordinates":["-3.1843109700062","55.969910977207"]},"properties":{"Site_Name":"Ashley Place","RecyclingS":"Nos. 16 - 30 Ashley Place","BankTypeNa":"Bottle Bank - Mixed","Latitude":"55.969910977207","Longitude":"-3.1843109700062"}},{"type":"Feature","geometry":{"type":"Point","coordinates":["-3.1843109700062","55.969910977207"]},"properties":{"Site_Name":"Ashley Place","RecyclingS":"Nos. 16 - 30 Ashley Place","BankTypeNa":"Packaging","Latitude":"55.969910977207","Longitude":"-3.1843109700062"}},{"type":"Feature","geometry":{"type":"Point","coordinates":["-3.1843109700062","55.969910977207"]},"properties":{"Site_Name":"Ashley Place","RecyclingS":"Nos. 16 - 30 Ashley Place","BankTypeNa":"Packaging","Latitude":"55.969910977207","Longitude":"-3.1843109700062"}},{"type":"Feature","geometry":{"type":"Point","coordinates":["-3.2276661658232","55.931927297542"]},"properties":{"Site_Name":"Ashley Terrace","RecyclingS":"Craiglockhart Primary School - No. 90 Ashley Terrace","BankTypeNa":"Packaging","Latitude":"55.931927297542","Longitude":"-3.2276661658232"}},{"type":"Feature","geometry":{"type":"Point","coordinates":["-3.2291758665048","55.933098334668"]},"properties":{"Site_Name":"Ashley Terrace","RecyclingS":"Outside No 51 Ashley Terrace","BankTypeNa":"Paper Bank","Latitude":"55.933098334668","Longitude":"-3.2291758665048"}},{"type":"Feature","geometry":{"type":"Point","coordinates":["-3.2291758665048","55.933098334668"]},"properties":{"Site_Name":"Ashley Terrace","RecyclingS":"Outside No 51 Ashley Terrace","BankTypeNa":"Packaging","Latitude":"55.933098334668","Longitude":"-3.2291758665048"}},{"type":"Feature","geometry":{"type":"Point","coordinates":["-3.2276661658232","55.931927297542"]},"properties":{"Site_Name":"Ashley Terrace","RecyclingS":"Craiglockhart Primary School - No. 90 Ashley Terrace","BankTypeNa":"Paper Bank","Latitude":"55.931927297542","Longitude":"-3.2276661658232"}},{"type":"Feature","geometry":{"type":"Point","coordinates":["-3.164638475749","55.975336928025"]},"properties":{"Site_Name":"Assembly Street","RecyclingS":"Between Nos. 1 & 3 Assembly Street","BankTypeNa":"Packaging","Latitude":"55.975336928025","Longitude":"-3.164638475749"}},{"type":"Feature","geometry":{"type":"Point","coordinates":["-3.164638475749","55.975336928025"]},"properties":{"Site_Name":"Assembly Street","RecyclingS":"Between Nos. 1 & 3 Assembly Street","BankTypeNa":"Paper Bank","Latitude":"55.975336928025","Longitude":"-3.164638475749"}},{"type":"Feature","geometry":{"type":"Point","coordinates":["-3.166208427367","55.975322084569"]},"properties":{"Site_Name":"Assembly Street","RecyclingS":"Outside no. 49 Assembly Street","BankTypeNa":"Packaging","Latitude":"55.975322084569","Longitude":"-3.166208427367"}},{"type":"Feature","geometry":{"type":"Point","coordinates":["-3.166208427367","55.975322084569"]},"properties":{"Site_Name":"Assembly Street","RecyclingS":"Outside no. 49 Assembly Street","BankTypeNa":"Paper Bank","Latitude":"55.975322084569","Longitude":"-3.166208427367"}},{"type":"Feature","geometry":{"type":"Point","coordinates":["-3.3080110827454","55.969172454945"]},"properties":{"Site_Name":"Avon Road","RecyclingS":"Avenel - Avon Road","BankTypeNa":"Packaging","Latitude":"55.969172454945","Longitude":"-3.3080110827454"}},{"type":"Feature","geometry":{"type":"Point","coordinates":["-3.3080110827454","55.969172454945"]},"properties":{"Site_Name":"Avon Road","RecyclingS":"Avenel - Avon Road","BankTypeNa":"Bottle Bank - Mixed","Latitude":"55.969172454945","Longitude":"-3.3080110827454"}},{"type":"Feature","geometry":{"type":"Point","coordinates":["-3.3080110827454","55.969172454945"]},"properties":{"Site_Name":"Avon Road","RecyclingS":"Avenel - Avon Road","BankTypeNa":"Paper Bank","Latitude":"55.969172454945","Longitude":"-3.3080110827454"}},{"type":"Feature","geometry":{"type":"Point","coordinates":["-3.3080110827454","55.969172454945"]},"properties":{"Site_Name":"Avon Road","RecyclingS":"Avenel - Avon Road","BankTypeNa":"Packaging","Latitude":"55.969172454945","Longitude":"-3.3080110827454"}},{"type":"Feature","geometry":{"type":"Point","coordinates":["-3.3080110827454","55.969172454945"]},"properties":{"Site_Name":"Avon Road","RecyclingS":"Avenel - Avon Road","BankTypeNa":"Paper Bank","Latitude":"55.969172454945","Longitude":"-3.3080110827454"}},{"type":"Feature","geometry":{"type":"Point","coordinates":["-3.284715122847","55.906320542827"]},"properties":{"Site_Name":"Baberton Mains Wynd","RecyclingS":"Juniper Green Primary School - No. 20 Baberton Mains Wynd","BankTypeNa":"Paper Bank","Latitude":"55.906320542827","Longitude":"-3.284715122847"}},{"type":"Feature","geometry":{"type":"Point","coordinates":["-3.2170119696514","55.924979370159"]},"properties":{"Site_Name":"Balcarres Street","RecyclingS":"Nos. 38-39 Balcarres Street - Cleansing Depot","BankTypeNa":"Packaging","Latitude":"55.924979370159","Longitude":"-3.2170119696514"}},{"type":"Feature","geometry":{"type":"Point","coordinates":["-3.2170119696514","55.924979370159"]},"properties":{"Site_Name":"Balcarres Street","RecyclingS":"Nos. 38-39 Balcarres Street - Cleansing Depot","BankTypeNa":"Bottle Bank - Brown","Latitude":"55.924979370159","Longitude":"-3.2170119696514"}},{"type":"Feature","geometry":{"type":"Point","coordinates":["-3.2170119696514","55.924979370159"]},"properties":{"Site_Name":"Balcarres Street","RecyclingS":"Nos. 38-39 Balcarres Street - Cleansing Depot","BankTypeNa":"Paper Bank","Latitude":"55.924979370159","Longitude":"-3.2170119696514"}},{"type":"Feature","geometry":{"type":"Point","coordinates":["-3.2170119696514","55.924979370159"]},"properties":{"Site_Name":"Balcarres Street","RecyclingS":"Nos. 38-39 Balcarres Street - Cleansing Depot","BankTypeNa":"Bottle Bank - Clear","Latitude":"55.924979370159","Longitude":"-3.2170119696514"}},{"type":"Feature","geometry":{"type":"Point","coordinates":["-3.2170119696514","55.924979370159"]},"properties":{"Site_Name":"Balcarres Street","RecyclingS":"Nos. 38-39 Balcarres Street - Cleansing Depot","BankTypeNa":"Bottle Bank - Clear","Latitude":"55.924979370159","Longitude":"-3.2170119696514"}},{"type":"Feature","geometry":{"type":"Point","coordinates":["-3.2170119696514","55.924979370159"]},"properties":{"Site_Name":"Balcarres Street","RecyclingS":"Nos. 38-39 Balcarres Street - Cleansing Depot","BankTypeNa":"Packaging","Latitude":"55.924979370159","Longitude":"-3.2170119696514"}},{"type":"Feature","geometry":{"type":"Point","coordinates":["-3.2170119696514","55.924979370159"]},"properties":{"Site_Name":"Balcarres Street","RecyclingS":"Nos. 38-39 Balcarres Street - Cleansing Depot","BankTypeNa":"Paper Bank","Latitude":"55.924979370159","Longitude":"-3.2170119696514"}},{"type":"Feature","geometry":{"type":"Point","coordinates":["-3.2170119696514","55.924979370159"]},"properties":{"Site_Name":"Balcarres Street","RecyclingS":"Nos. 38-39 Balcarres Street - Cleansing Depot","BankTypeNa":"Paper Bank","Latitude":"55.924979370159","Longitude":"-3.2170119696514"}},{"type":"Feature","geometry":{"type":"Point","coordinates":["-3.2109730826157","55.925317440041"]},"properties":{"Site_Name":"Balcarres Street","RecyclingS":"No. 1 Balcarres Street","BankTypeNa":"Packaging","Latitude":"55.925317440041","Longitude":"-3.2109730826157"}},{"type":"Feature","geometry":{"type":"Point","coordinates":["-3.2170119696514","55.924979370159"]},"properties":{"Site_Name":"Balcarres Street","RecyclingS":"Nos. 38-39 Balcarres Street - Cleansing Depot","BankTypeNa":"Packaging","Latitude":"55.924979370159","Longitude":"-3.2170119696514"}},{"type":"Feature","geometry":{"type":"Point","coordinates":["-3.2170119696514","55.924979370159"]},"properties":{"Site_Name":"Balcarres Street","RecyclingS":"Nos. 38-39 Balcarres Street - Cleansing Depot","BankTypeNa":"Packaging","Latitude":"55.924979370159","Longitude":"-3.2170119696514"}},{"type":"Feature","geometry":{"type":"Point","coordinates":["-3.2109730826157","55.925317440041"]},"properties":{"Site_Name":"Balcarres Street","RecyclingS":"No. 1 Balcarres Street","BankTypeNa":"Paper Bank","Latitude":"55.925317440041","Longitude":"-3.2109730826157"}},{"type":"Feature","geometry":{"type":"Point","coordinates":["-3.2170119696514","55.924979370159"]},"properties":{"Site_Name":"Balcarres Street","RecyclingS":"Nos. 38-39 Balcarres Street - Cleansing Depot","BankTypeNa":"Packaging","Latitude":"55.924979370159","Longitude":"-3.2170119696514"}},{"type":"Feature","geometry":{"type":"Point","coordinates":["-3.2170119696514","55.924979370159"]},"properties":{"Site_Name":"Balcarres Street","RecyclingS":"Nos. 38-39 Balcarres Street - Cleansing Depot","BankTypeNa":"Bottle Bank - Green","Latitude":"55.924979370159","Longitude":"-3.2170119696514"}},{"type":"Feature","geometry":{"type":"Point","coordinates":["-3.2109730826157","55.925317440041"]},"properties":{"Site_Name":"Balcarres Street","RecyclingS":"No. 1 Balcarres Street","BankTypeNa":"Packaging","Latitude":"55.925317440041","Longitude":"-3.2109730826157"}},{"type":"Feature","geometry":{"type":"Point","coordinates":["-3.2170119696514","55.924979370159"]},"properties":{"Site_Name":"Balcarres Street","RecyclingS":"Nos. 38-39 Balcarres Street - Cleansing Depot","BankTypeNa":"Textile Bank","Latitude":"55.924979370159","Longitude":"-3.2170119696514"}},{"type":"Feature","geometry":{"type":"Point","coordinates":["-3.2170119696514","55.924979370159"]},"properties":{"Site_Name":"Balcarres Street","RecyclingS":"Nos. 38-39 Balcarres Street - Cleansing Depot","BankTypeNa":"Bottle Bank - Green","Latitude":"55.924979370159","Longitude":"-3.2170119696514"}},{"type":"Feature","geometry":{"type":"Point","coordinates":["-3.2170119696514","55.924979370159"]},"properties":{"Site_Name":"Balcarres Street","RecyclingS":"Nos. 38-39 Balcarres Street - Cleansing Depot","BankTypeNa":"Bottle Bank - Green","Latitude":"55.924979370159","Longitude":"-3.2170119696514"}},{"type":"Feature","geometry":{"type":"Point","coordinates":["-3.1804960973354","55.967755128278"]},"properties":{"Site_Name":"Balfour Place","RecyclingS":"Pilrig Park School - No. 12 Balfour Place","BankTypeNa":"Can Banks","Latitude":"55.967755128278","Longitude":"-3.1804960973354"}},{"type":"Feature","geometry":{"type":"Point","coordinates":["-3.1804960973354","55.967755128278"]},"properties":{"Site_Name":"Balfour Place","RecyclingS":"Pilrig Park School - No. 12 Balfour Place","BankTypeNa":"Packaging","Latitude":"55.967755128278","Longitude":"-3.1804960973354"}},{"type":"Feature","geometry":{"type":"Point","coordinates":["-3.1804960973354","55.967755128278"]},"properties":{"Site_Name":"Balfour Place","RecyclingS":"Pilrig Park School - No. 12 Balfour Place","BankTypeNa":"Paper Bank","Latitude":"55.967755128278","Longitude":"-3.1804960973354"}},{"type":"Feature","geometry":{"type":"Point","coordinates":["-3.1774003419208","55.966580692721"]},"properties":{"Site_Name":"Balfour Street","RecyclingS":"No 29 Balfour Street","BankTypeNa":"Paper Bank","Latitude":"55.966580692721","Longitude":"-3.1774003419208"}},{"type":"Feature","geometry":{"type":"Point","coordinates":["-3.1774003419208","55.966580692721"]},"properties":{"Site_Name":"Balfour Street","RecyclingS":"No 29 Balfour Street","BankTypeNa":"Packaging","Latitude":"55.966580692721","Longitude":"-3.1774003419208"}},{"type":"Feature","geometry":{"type":"Point","coordinates":["-3.1789341101891","55.968021671318"]},"properties":{"Site_Name":"Balfour Street","RecyclingS":"Balfour Street Park Entrance","BankTypeNa":"Packaging","Latitude":"55.968021671318","Longitude":"-3.1789341101891"}},{"type":"Feature","geometry":{"type":"Point","coordinates":["-3.1785314071644","55.967423498621"]},"properties":{"Site_Name":"Balfour Street","RecyclingS":"Opposite No. 47 Balfour Street","BankTypeNa":"Packaging","Latitude":"55.967423498621","Longitude":"-3.1785314071644"}},{"type":"Feature","geometry":{"type":"Point","coordinates":["-3.1789341101891","55.968021671318"]},"properties":{"Site_Name":"Balfour Street","RecyclingS":"Balfour Street Park Entrance","BankTypeNa":"Paper Bank","Latitude":"55.968021671318","Longitude":"-3.1789341101891"}},{"type":"Feature","geometry":{"type":"Point","coordinates":["-3.1761944251705","55.965909314177"]},"properties":{"Site_Name":"Balfour Street","RecyclingS":"RHS No 6 Balfour Street","BankTypeNa":"Paper Bank","Latitude":"55.965909314177","Longitude":"-3.1761944251705"}},{"type":"Feature","geometry":{"type":"Point","coordinates":["-3.1785314071644","55.967423498621"]},"properties":{"Site_Name":"Balfour Street","RecyclingS":"Opposite No. 47 Balfour Street","BankTypeNa":"Paper Bank","Latitude":"55.967423498621","Longitude":"-3.1785314071644"}},{"type":"Feature","geometry":{"type":"Point","coordinates":["-3.1761944251705","55.965909314177"]},"properties":{"Site_Name":"Balfour Street","RecyclingS":"RHS No 6 Balfour Street","BankTypeNa":"Packaging","Latitude":"55.965909314177","Longitude":"-3.1761944251705"}},{"type":"Feature","geometry":{"type":"Point","coordinates":["-3.1763524039804","55.965835922955"]},"properties":{"Site_Name":"Balfour Street","RecyclingS":"RHS No. 7 Balfour Street","BankTypeNa":"Paper Bank","Latitude":"55.965835922955","Longitude":"-3.1763524039804"}},{"type":"Feature","geometry":{"type":"Point","coordinates":["-3.1763524039804","55.965835922955"]},"properties":{"Site_Name":"Balfour Street","RecyclingS":"RHS No. 7 Balfour Street","BankTypeNa":"Packaging","Latitude":"55.965835922955","Longitude":"-3.1763524039804"}},{"type":"Feature","geometry":{"type":"Point","coordinates":["-3.1778426063739","55.966899942554"]},"properties":{"Site_Name":"Balfour Street","RecyclingS":"LHS No. 35 Balfour Street","BankTypeNa":"Packaging","Latitude":"55.966899942554","Longitude":"-3.1778426063739"}},{"type":"Feature","geometry":{"type":"Point","coordinates":["-3.2485005863643","55.93770228795"]},"properties":{"Site_Name":"Balgreen Road","RecyclingS":"Balgreen Primary School - No. 171 Balgreen Road","BankTypeNa":"Packaging","Latitude":"55.93770228795","Longitude":"-3.2485005863643"}},{"type":"Feature","geometry":{"type":"Point","coordinates":["-3.2485005863643","55.93770228795"]},"properties":{"Site_Name":"Balgreen Road","RecyclingS":"Balgreen Primary School - No. 171 Balgreen Road","BankTypeNa":"Paper Bank","Latitude":"55.93770228795","Longitude":"-3.2485005863643"}},{"type":"Feature","geometry":{"type":"Point","coordinates":["-3.1784257372995","55.974487055926"]},"properties":{"Site_Name":"Ballantyne Road","RecyclingS":"No. 1 Ballantyne Road","BankTypeNa":"Paper Bank","Latitude":"55.974487055926","Longitude":"-3.1784257372995"}},{"type":"Feature","geometry":{"type":"Point","coordinates":["-3.1784257372995","55.974487055926"]},"properties":{"Site_Name":"Ballantyne Road","RecyclingS":"No. 1 Ballantyne Road","BankTypeNa":"Packaging","Latitude":"55.974487055926","Longitude":"-3.1784257372995"}},{"type":"Feature","geometry":{"type":"Point","coordinates":["-3.1623682459111","55.901758494599"]},"properties":{"Site_Name":"Balmwell Terrace","RecyclingS":"Packaging bin with green lid","BankTypeNa":"Packaging","Latitude":"55.901758494599","Longitude":"-3.1623682459111"}},{"type":"Feature","geometry":{"type":"Point","coordinates":["-3.2057715744069","55.969613044501"]},"properties":{"Site_Name":"Bangholm Terrace","RecyclingS":"Nos. 13 to 14 Bangholm Terrace","BankTypeNa":"Paper Bank","Latitude":"55.969613044501","Longitude":"-3.2057715744069"}},{"type":"Feature","geometry":{"type":"Point","coordinates":["-3.2057715744069","55.969613044501"]},"properties":{"Site_Name":"Bangholm Terrace","RecyclingS":"Nos. 13 to 14 Bangholm Terrace","BankTypeNa":"Packaging","Latitude":"55.969613044501","Longitude":"-3.2057715744069"}},{"type":"Feature","geometry":{"type":"Point","coordinates":["-3.2057715744069","55.969613044501"]},"properties":{"Site_Name":"Bangholm Terrace","RecyclingS":"Nos. 13 to 14 Bangholm Terrace","BankTypeNa":"Packaging","Latitude":"55.969613044501","Longitude":"-3.2057715744069"}},{"type":"Feature","geometry":{"type":"Point","coordinates":["-3.2057715744069","55.969613044501"]},"properties":{"Site_Name":"Bangholm Terrace","RecyclingS":"Nos. 13 to 14 Bangholm Terrace","BankTypeNa":"Bottle Bank - Mixed","Latitude":"55.969613044501","Longitude":"-3.2057715744069"}},{"type":"Feature","geometry":{"type":"Point","coordinates":["-3.2067705965648","55.969279790343"]},"properties":{"Site_Name":"Bangholm Terrace","RecyclingS":"Nos. 3 - 9 Bangholm Terrace","BankTypeNa":"Packaging","Latitude":"55.969279790343","Longitude":"-3.2067705965648"}},{"type":"Feature","geometry":{"type":"Point","coordinates":["-3.2067705965648","55.969279790343"]},"properties":{"Site_Name":"Bangholm Terrace","RecyclingS":"Nos. 3 - 9 Bangholm Terrace","BankTypeNa":"Paper Bank","Latitude":"55.969279790343","Longitude":"-3.2067705965648"}},{"type":"Feature","geometry":{"type":"Point","coordinates":["-3.2067705965648","55.969279790343"]},"properties":{"Site_Name":"Bangholm Terrace","RecyclingS":"Nos. 3 - 9 Bangholm Terrace","BankTypeNa":"Bottle Bank - Mixed","Latitude":"55.969279790343","Longitude":"-3.2067705965648"}},{"type":"Feature","geometry":{"type":"Point","coordinates":["-3.2067705965648","55.969279790343"]},"properties":{"Site_Name":"Bangholm Terrace","RecyclingS":"Nos. 3 - 9 Bangholm Terrace","BankTypeNa":"Packaging","Latitude":"55.969279790343","Longitude":"-3.2067705965648"}},{"type":"Feature","geometry":{"type":"Point","coordinates":["-3.1774619428201","55.973355117602"]},"properties":{"Site_Name":"Bangor Road","RecyclingS":"No. 11 Bangor Road","BankTypeNa":"Paper Bank","Latitude":"55.973355117602","Longitude":"-3.1774619428201"}},{"type":"Feature","geometry":{"type":"Point","coordinates":["-3.1774619428201","55.973355117602"]},"properties":{"Site_Name":"Bangor Road","RecyclingS":"No. 11 Bangor Road","BankTypeNa":"Packaging","Latitude":"55.973355117602","Longitude":"-3.1774619428201"}},{"type":"Feature","geometry":{"type":"Point","coordinates":["-3.2916634285118","55.926222950699"]},"properties":{"Site_Name":"Bankhead Avenue","RecyclingS":"Sighthill Community Recycling Centre - Bankhead Avenue","BankTypeNa":"Packaging","Latitude":"55.926222950699","Longitude":"-3.2916634285118"}},{"type":"Feature","geometry":{"type":"Point","coordinates":["-3.2916634285118","55.926222950699"]},"properties":{"Site_Name":"Bankhead Avenue","RecyclingS":"Sighthill Community Recycling Centre - Bankhead Avenue","BankTypeNa":"Bottle Bank - Mixed","Latitude":"55.926222950699","Longitude":"-3.2916634285118"}},{"type":"Feature","geometry":{"type":"Point","coordinates":["-3.2916634285118","55.926222950699"]},"properties":{"Site_Name":"Bankhead Avenue","RecyclingS":"Sighthill Community Recycling Centre - Bankhead Avenue","BankTypeNa":"Bottle Bank - Mixed","Latitude":"55.926222950699","Longitude":"-3.2916634285118"}},{"type":"Feature","geometry":{"type":"Point","coordinates":["-3.2916634285118","55.926222950699"]},"properties":{"Site_Name":"Bankhead Avenue","RecyclingS":"Sighthill Community Recycling Centre - Bankhead Avenue","BankTypeNa":"Packaging","Latitude":"55.926222950699","Longitude":"-3.2916634285118"}},{"type":"Feature","geometry":{"type":"Point","coordinates":["-3.2916634285118","55.926222950699"]},"properties":{"Site_Name":"Bankhead Avenue","RecyclingS":"Sighthill Community Recycling Centre - Bankhead Avenue","BankTypeNa":"Packaging","Latitude":"55.926222950699","Longitude":"-3.2916634285118"}},{"type":"Feature","geometry":{"type":"Point","coordinates":["-3.2916634285118","55.926222950699"]},"properties":{"Site_Name":"Bankhead Avenue","RecyclingS":"Sighthill Community Recycling Centre - Bankhead Avenue","BankTypeNa":"Packaging","Latitude":"55.926222950699","Longitude":"-3.2916634285118"}},{"type":"Feature","geometry":{"type":"Point","coordinates":["-3.2916634285118","55.926222950699"]},"properties":{"Site_Name":"Bankhead Avenue","RecyclingS":"Sighthill Community Recycling Centre - Bankhead Avenue","BankTypeNa":"Packaging","Latitude":"55.926222950699","Longitude":"-3.2916634285118"}},{"type":"Feature","geometry":{"type":"Point","coordinates":["-3.2916634285118","55.926222950699"]},"properties":{"Site_Name":"Bankhead Avenue","RecyclingS":"Sighthill Community Recycling Centre - Bankhead Avenue","BankTypeNa":"Packaging","Latitude":"55.926222950699","Longitude":"-3.2916634285118"}},{"type":"Feature","geometry":{"type":"Point","coordinates":["-3.2916634285118","55.926222950699"]},"properties":{"Site_Name":"Bankhead Avenue","RecyclingS":"Sighthill Community Recycling Centre - Bankhead Avenue","BankTypeNa":"Bottle Bank - Mixed","Latitude":"55.926222950699","Longitude":"-3.2916634285118"}},{"type":"Feature","geometry":{"type":"Point","coordinates":["-3.2916634285118","55.926222950699"]},"properties":{"Site_Name":"Bankhead Avenue","RecyclingS":"Sighthill Community Recycling Centre - Bankhead Avenue","BankTypeNa":"Bottle Bank - Mixed","Latitude":"55.926222950699","Longitude":"-3.2916634285118"}},{"type":"Feature","geometry":{"type":"Point","coordinates":["-3.2916634285118","55.926222950699"]},"properties":{"Site_Name":"Bankhead Avenue","RecyclingS":"Sighthill Community Recycling Centre - Bankhead Avenue","BankTypeNa":"Packaging","Latitude":"55.926222950699","Longitude":"-3.2916634285118"}},{"type":"Feature","geometry":{"type":"Point","coordinates":["-3.2916634285118","55.926222950699"]},"properties":{"Site_Name":"Bankhead Avenue","RecyclingS":"Sighthill Community Recycling Centre - Bankhead Avenue","BankTypeNa":"Packaging","Latitude":"55.926222950699","Longitude":"-3.2916634285118"}},{"type":"Feature","geometry":{"type":"Point","coordinates":["-3.2916634285118","55.926222950699"]},"properties":{"Site_Name":"Bankhead Avenue","RecyclingS":"Sighthill Community Recycling Centre - Bankhead Avenue","BankTypeNa":"Packaging","Latitude":"55.926222950699","Longitude":"-3.2916634285118"}},{"type":"Feature","geometry":{"type":"Point","coordinates":["-3.2916634285118","55.926222950699"]},"properties":{"Site_Name":"Bankhead Avenue","RecyclingS":"Sighthill Community Recycling Centre - Bankhead Avenue","BankTypeNa":"Packaging","Latitude":"55.926222950699","Longitude":"-3.2916634285118"}},{"type":"Feature","geometry":{"type":"Point","coordinates":["-3.2916634285118","55.926222950699"]},"properties":{"Site_Name":"Bankhead Avenue","RecyclingS":"Sighthill Community Recycling Centre - Bankhead Avenue","BankTypeNa":"Paper Bank","Latitude":"55.926222950699","Longitude":"-3.2916634285118"}},{"type":"Feature","geometry":{"type":"Point","coordinates":["-3.2916634285118","55.926222950699"]},"properties":{"Site_Name":"Bankhead Avenue","RecyclingS":"Sighthill Community Recycling Centre - Bankhead Avenue","BankTypeNa":"Packaging","Latitude":"55.926222950699","Longitude":"-3.2916634285118"}},{"type":"Feature","geometry":{"type":"Point","coordinates":["-3.2916634285118","55.926222950699"]},"properties":{"Site_Name":"Bankhead Avenue","RecyclingS":"Sighthill Community Recycling Centre - Bankhead Avenue","BankTypeNa":"Bottle Bank - Mixed","Latitude":"55.926222950699","Longitude":"-3.2916634285118"}},{"type":"Feature","geometry":{"type":"Point","coordinates":["-3.2916634285118","55.926222950699"]},"properties":{"Site_Name":"Bankhead Avenue","RecyclingS":"Sighthill Community Recycling Centre - Bankhead Avenue","BankTypeNa":"Packaging","Latitude":"55.926222950699","Longitude":"-3.2916634285118"}},{"type":"Feature","geometry":{"type":"Point","coordinates":["-3.2916634285118","55.926222950699"]},"properties":{"Site_Name":"Bankhead Avenue","RecyclingS":"Sighthill Community Recycling Centre - Bankhead Avenue","BankTypeNa":"Paper Bank","Latitude":"55.926222950699","Longitude":"-3.2916634285118"}},{"type":"Feature","geometry":{"type":"Point","coordinates":["-3.2916634285118","55.926222950699"]},"properties":{"Site_Name":"Bankhead Avenue","RecyclingS":"Sighthill Community Recycling Centre - Bankhead Avenue","BankTypeNa":"Paper Bank","Latitude":"55.926222950699","Longitude":"-3.2916634285118"}},{"type":"Feature","geometry":{"type":"Point","coordinates":["-3.2916634285118","55.926222950699"]},"properties":{"Site_Name":"Bankhead Avenue","RecyclingS":"Sighthill Community Recycling Centre - Bankhead Avenue","BankTypeNa":"Bottle Bank - Mixed","Latitude":"55.926222950699","Longitude":"-3.2916634285118"}},{"type":"Feature","geometry":{"type":"Point","coordinates":["-3.2916634285118","55.926222950699"]},"properties":{"Site_Name":"Bankhead Avenue","RecyclingS":"Sighthill Community Recycling Centre - Bankhead Avenue","BankTypeNa":"Paper Bank","Latitude":"55.926222950699","Longitude":"-3.2916634285118"}},{"type":"Feature","geometry":{"type":"Point","coordinates":["-3.2916634285118","55.926222950699"]},"properties":{"Site_Name":"Bankhead Avenue","RecyclingS":"Sighthill Community Recycling Centre - Bankhead Avenue","BankTypeNa":"Textile Bank","Latitude":"55.926222950699","Longitude":"-3.2916634285118"}},{"type":"Feature","geometry":{"type":"Point","coordinates":["-3.2916634285118","55.926222950699"]},"properties":{"Site_Name":"Bankhead Avenue","RecyclingS":"Sighthill Community Recycling Centre - Bankhead Avenue","BankTypeNa":"Textile Bank","Latitude":"55.926222950699","Longitude":"-3.2916634285118"}},{"type":"Feature","geometry":{"type":"Point","coordinates":["-3.2916634285118","55.926222950699"]},"properties":{"Site_Name":"Bankhead Avenue","RecyclingS":"Sighthill Community Recycling Centre - Bankhead Avenue","BankTypeNa":"Textile Bank","Latitude":"55.926222950699","Longitude":"-3.2916634285118"}},{"type":"Feature","geometry":{"type":"Point","coordinates":["-3.2916634285118","55.926222950699"]},"properties":{"Site_Name":"Bankhead Avenue","RecyclingS":"Sighthill Community Recycling Centre - Bankhead Avenue","BankTypeNa":"Textile Bank","Latitude":"55.926222950699","Longitude":"-3.2916634285118"}},{"type":"Feature","geometry":{"type":"Point","coordinates":["-3.2916634285118","55.926222950699"]},"properties":{"Site_Name":"Bankhead Avenue","RecyclingS":"Sighthill Community Recycling Centre - Bankhead Avenue","BankTypeNa":"Textile Bank","Latitude":"55.926222950699","Longitude":"-3.2916634285118"}},{"type":"Feature","geometry":{"type":"Point","coordinates":["-3.2042791938071","55.939625107459"]},"properties":{"Site_Name":"Barclay Terrace","RecyclingS":"No. 4 Barclay Terrace","BankTypeNa":"Packaging","Latitude":"55.939625107459","Longitude":"-3.2042791938071"}},{"type":"Feature","geometry":{"type":"Point","coordinates":["-3.2042791938071","55.939625107459"]},"properties":{"Site_Name":"Barclay Terrace","RecyclingS":"No. 4 Barclay Terrace","BankTypeNa":"Paper Bank","Latitude":"55.939625107459","Longitude":"-3.2042791938071"}},{"type":"Feature","geometry":{"type":"Point","coordinates":["-3.158389503381","55.966778809091"]},"properties":{"Site_Name":"Barleyhill Terrace","RecyclingS":"Nos. 1,2,4,8,10,12 Barleyhill Terrace","BankTypeNa":"Packaging","Latitude":"55.966778809091","Longitude":"-3.158389503381"}},{"type":"Feature","geometry":{"type":"Point","coordinates":["-3.158389503381","55.966778809091"]},"properties":{"Site_Name":"Barleyhill Terrace","RecyclingS":"Nos. 1,2,4,8,10,12 Barleyhill Terrace","BankTypeNa":"Packaging","Latitude":"55.966778809091","Longitude":"-3.158389503381"}},{"type":"Feature","geometry":{"type":"Point","coordinates":["-3.158389503381","55.966778809091"]},"properties":{"Site_Name":"Barleyhill Terrace","RecyclingS":"Nos. 1,2,4,8,10,12 Barleyhill Terrace","BankTypeNa":"Paper Bank","Latitude":"55.966778809091","Longitude":"-3.158389503381"}},{"type":"Feature","geometry":{"type":"Point","coordinates":["-3.158389503381","55.966778809091"]},"properties":{"Site_Name":"Barleyhill Terrace","RecyclingS":"Nos. 1,2,4,8,10,12 Barleyhill Terrace","BankTypeNa":"Bottle Bank - Mixed","Latitude":"55.966778809091","Longitude":"-3.158389503381"}},{"type":"Feature","geometry":{"type":"Point","coordinates":["-3.3068652185715","55.966075594027"]},"properties":{"Site_Name":"Barnton Avenue West","RecyclingS":"No. 2 Barnton Avenue West","BankTypeNa":"Paper Bank","Latitude":"55.966075594027","Longitude":"-3.3068652185715"}},{"type":"Feature","geometry":{"type":"Point","coordinates":["-3.3003063080302","55.968274553818"]},"properties":{"Site_Name":"Barnton Avenue West","RecyclingS":"No. 34 Barnton Avenue West (flats 1-7, a & b)","BankTypeNa":"Bottle Bank - Mixed","Latitude":"55.968274553818","Longitude":"-3.3003063080302"}},{"type":"Feature","geometry":{"type":"Point","coordinates":["-3.3003063080302","55.968274553818"]},"properties":{"Site_Name":"Barnton Avenue West","RecyclingS":"No. 34 Barnton Avenue West (flats 1-7, a & b)","BankTypeNa":"Paper Bank","Latitude":"55.968274553818","Longitude":"-3.3003063080302"}},{"type":"Feature","geometry":{"type":"Point","coordinates":["-3.3032105114143","55.961729322785"]},"properties":{"Site_Name":"Barnton Court","RecyclingS":"Barnton Court - Garage on LHS entrance","BankTypeNa":"Packaging","Latitude":"55.961729322785","Longitude":"-3.3032105114143"}},{"type":"Feature","geometry":{"type":"Point","coordinates":["-3.3032105114143","55.961729322785"]},"properties":{"Site_Name":"Barnton Court","RecyclingS":"Barnton Court - Garage on LHS entrance","BankTypeNa":"Paper Bank","Latitude":"55.961729322785","Longitude":"-3.3032105114143"}},{"type":"Feature","geometry":{"type":"Point","coordinates":["-3.3047967506256","55.961739495083"]},"properties":{"Site_Name":"Barnton Grove","RecyclingS":"Barnton Grove - Burgess View","BankTypeNa":"Paper Bank","Latitude":"55.961739495083","Longitude":"-3.3047967506256"}},{"type":"Feature","geometry":{"type":"Point","coordinates":["-3.3047967506256","55.961739495083"]},"properties":{"Site_Name":"Barnton Grove","RecyclingS":"Barnton Grove - Burgess View","BankTypeNa":"Packaging","Latitude":"55.961739495083","Longitude":"-3.3047967506256"}},{"type":"Feature","geometry":{"type":"Point","coordinates":["-3.3047967506256","55.961739495083"]},"properties":{"Site_Name":"Barnton Grove","RecyclingS":"Barnton Grove - Burgess View","BankTypeNa":"Packaging","Latitude":"55.961739495083","Longitude":"-3.3047967506256"}},{"type":"Feature","geometry":{"type":"Point","coordinates":["-3.3047967506256","55.961739495083"]},"properties":{"Site_Name":"Barnton Grove","RecyclingS":"Barnton Grove - Burgess View","BankTypeNa":"Bottle Bank - Mixed","Latitude":"55.961739495083","Longitude":"-3.3047967506256"}},{"type":"Feature","geometry":{"type":"Point","coordinates":["-3.3047967506256","55.961739495083"]},"properties":{"Site_Name":"Barnton Grove","RecyclingS":"Barnton Grove - Burgess View","BankTypeNa":"Packaging","Latitude":"55.961739495083","Longitude":"-3.3047967506256"}},{"type":"Feature","geometry":{"type":"Point","coordinates":["-3.3047967506256","55.961739495083"]},"properties":{"Site_Name":"Barnton Grove","RecyclingS":"Barnton Grove - Burgess View","BankTypeNa":"Bottle Bank - Mixed","Latitude":"55.961739495083","Longitude":"-3.3047967506256"}},{"type":"Feature","geometry":{"type":"Point","coordinates":["-3.3047967506256","55.961739495083"]},"properties":{"Site_Name":"Barnton Grove","RecyclingS":"Barnton Grove - Burgess View","BankTypeNa":"Paper Bank","Latitude":"55.961739495083","Longitude":"-3.3047967506256"}},{"type":"Feature","geometry":{"type":"Point","coordinates":["-3.1459140709216","55.954477602315"]},"properties":{"Site_Name":"Baronscourt Road","RecyclingS":"Baronscourt Road - Gable End No. 7 Piershill Place","BankTypeNa":"Paper Bank","Latitude":"55.954477602315","Longitude":"-3.1459140709216"}},{"type":"Feature","geometry":{"type":"Point","coordinates":["-3.1459140709216","55.954477602315"]},"properties":{"Site_Name":"Baronscourt Road","RecyclingS":"Baronscourt Road - Gable End No. 7 Piershill Place","BankTypeNa":"Packaging","Latitude":"55.954477602315","Longitude":"-3.1459140709216"}},{"type":"Feature","geometry":{"type":"Point","coordinates":["-3.146361328271","55.95443750073"]},"properties":{"Site_Name":"Baronscourt Road","RecyclingS":"Baronscourt Road - Gable End No. 8 Piershill Place","BankTypeNa":"Paper Bank","Latitude":"55.95443750073","Longitude":"-3.146361328271"}},{"type":"Feature","geometry":{"type":"Point","coordinates":["-3.1909753004134","55.957887122261"]},"properties":{"Site_Name":"Barony Street","RecyclingS":"Barony Street","BankTypeNa":"Packaging","Latitude":"55.957887122261","Longitude":"-3.1909753004134"}},{"type":"Feature","geometry":{"type":"Point","coordinates":["-3.1104967173669","55.954810847862"]},"properties":{"Site_Name":"Bath Street","RecyclingS":"No. 55 Bath Street","BankTypeNa":"Bottle Bank - Mixed","Latitude":"55.954810847862","Longitude":"-3.1104967173669"}},{"type":"Feature","geometry":{"type":"Point","coordinates":["-3.1104967173669","55.954810847862"]},"properties":{"Site_Name":"Bath Street","RecyclingS":"No. 55 Bath Street","BankTypeNa":"Packaging","Latitude":"55.954810847862","Longitude":"-3.1104967173669"}},{"type":"Feature","geometry":{"type":"Point","coordinates":["-3.1104967173669","55.954810847862"]},"properties":{"Site_Name":"Bath Street","RecyclingS":"No. 55 Bath Street","BankTypeNa":"Paper Bank","Latitude":"55.954810847862","Longitude":"-3.1104967173669"}},{"type":"Feature","geometry":{"type":"Point","coordinates":["-3.1110178989015","55.954554559616"]},"properties":{"Site_Name":"Bath Street","RecyclingS":"No. 50 Bath Street","BankTypeNa":"Packaging","Latitude":"55.954554559616","Longitude":"-3.1110178989015"}},{"type":"Feature","geometry":{"type":"Point","coordinates":["-3.1104967173669","55.954810847862"]},"properties":{"Site_Name":"Bath Street","RecyclingS":"No. 55 Bath Street","BankTypeNa":"Bottle Bank - Mixed","Latitude":"55.954810847862","Longitude":"-3.1104967173669"}},{"type":"Feature","geometry":{"type":"Point","coordinates":["-3.1110178989015","55.954554559616"]},"properties":{"Site_Name":"Bath Street","RecyclingS":"No. 50 Bath Street","BankTypeNa":"Paper Bank","Latitude":"55.954554559616","Longitude":"-3.1110178989015"}},{"type":"Feature","geometry":{"type":"Point","coordinates":["-3.3393107709299","55.883121729913"]},"properties":{"Site_Name":"Bavelaw Road | Balerno","RecyclingS":"Bavelaw Road - Car Park Opposite Scotmid","BankTypeNa":"Paper Bank","Latitude":"55.883121729913","Longitude":"-3.3393107709299"}},{"type":"Feature","geometry":{"type":"Point","coordinates":["-3.3393107709299","55.883121729913"]},"properties":{"Site_Name":"Bavelaw Road | Balerno","RecyclingS":"Bavelaw Road - Car Park Opposite Scotmid","BankTypeNa":"Packaging","Latitude":"55.883121729913","Longitude":"-3.3393107709299"}},{"type":"Feature","geometry":{"type":"Point","coordinates":["-3.3393107709299","55.883121729913"]},"properties":{"Site_Name":"Bavelaw Road | Balerno","RecyclingS":"Bavelaw Road - Car Park Opposite Scotmid","BankTypeNa":"Bottle Bank - Clear","Latitude":"55.883121729913","Longitude":"-3.3393107709299"}},{"type":"Feature","geometry":{"type":"Point","coordinates":["-3.3393107709299","55.883121729913"]},"properties":{"Site_Name":"Bavelaw Road | Balerno","RecyclingS":"Bavelaw Road - Car Park Opposite Scotmid","BankTypeNa":"Textile Bank","Latitude":"55.883121729913","Longitude":"-3.3393107709299"}},{"type":"Feature","geometry":{"type":"Point","coordinates":["-3.3393107709299","55.883121729913"]},"properties":{"Site_Name":"Bavelaw Road | Balerno","RecyclingS":"Bavelaw Road - Car Park Opposite Scotmid","BankTypeNa":"Paper Bank","Latitude":"55.883121729913","Longitude":"-3.3393107709299"}},{"type":"Feature","geometry":{"type":"Point","coordinates":["-3.3393107709299","55.883121729913"]},"properties":{"Site_Name":"Bavelaw Road | Balerno","RecyclingS":"Bavelaw Road - Car Park Opposite Scotmid","BankTypeNa":"Packaging","Latitude":"55.883121729913","Longitude":"-3.3393107709299"}},{"type":"Feature","geometry":{"type":"Point","coordinates":["-3.3393107709299","55.883121729913"]},"properties":{"Site_Name":"Bavelaw Road | Balerno","RecyclingS":"Bavelaw Road - Car Park Opposite Scotmid","BankTypeNa":"Packaging","Latitude":"55.883121729913","Longitude":"-3.3393107709299"}},{"type":"Feature","geometry":{"type":"Point","coordinates":["-3.3393107709299","55.883121729913"]},"properties":{"Site_Name":"Bavelaw Road | Balerno","RecyclingS":"Bavelaw Road - Car Park Opposite Scotmid","BankTypeNa":"Packaging","Latitude":"55.883121729913","Longitude":"-3.3393107709299"}},{"type":"Feature","geometry":{"type":"Point","coordinates":["-3.3393107709299","55.883121729913"]},"properties":{"Site_Name":"Bavelaw Road | Balerno","RecyclingS":"Bavelaw Road - Car Park Opposite Scotmid","BankTypeNa":"Bottle Bank - Brown","Latitude":"55.883121729913","Longitude":"-3.3393107709299"}},{"type":"Feature","geometry":{"type":"Point","coordinates":["-3.3393107709299","55.883121729913"]},"properties":{"Site_Name":"Bavelaw Road | Balerno","RecyclingS":"Bavelaw Road - Car Park Opposite Scotmid","BankTypeNa":"Packaging","Latitude":"55.883121729913","Longitude":"-3.3393107709299"}},{"type":"Feature","geometry":{"type":"Point","coordinates":["-3.3393107709299","55.883121729913"]},"properties":{"Site_Name":"Bavelaw Road | Balerno","RecyclingS":"Bavelaw Road - Car Park Opposite Scotmid","BankTypeNa":"Packaging","Latitude":"55.883121729913","Longitude":"-3.3393107709299"}},{"type":"Feature","geometry":{"type":"Point","coordinates":["-3.3393107709299","55.883121729913"]},"properties":{"Site_Name":"Bavelaw Road | Balerno","RecyclingS":"Bavelaw Road - Car Park Opposite Scotmid","BankTypeNa":"Packaging","Latitude":"55.883121729913","Longitude":"-3.3393107709299"}},{"type":"Feature","geometry":{"type":"Point","coordinates":["-3.3393107709299","55.883121729913"]},"properties":{"Site_Name":"Bavelaw Road | Balerno","RecyclingS":"Bavelaw Road - Car Park Opposite Scotmid","BankTypeNa":"Bottle Bank - Green","Latitude":"55.883121729913","Longitude":"-3.3393107709299"}},{"type":"Feature","geometry":{"type":"Point","coordinates":["-3.3393107709299","55.883121729913"]},"properties":{"Site_Name":"Bavelaw Road | Balerno","RecyclingS":"Bavelaw Road - Car Park Opposite Scotmid","BankTypeNa":"Packaging","Latitude":"55.883121729913","Longitude":"-3.3393107709299"}},{"type":"Feature","geometry":{"type":"Point","coordinates":["-3.3393107709299","55.883121729913"]},"properties":{"Site_Name":"Bavelaw Road | Balerno","RecyclingS":"Bavelaw Road - Car Park Opposite Scotmid","BankTypeNa":"Packaging","Latitude":"55.883121729913","Longitude":"-3.3393107709299"}},{"type":"Feature","geometry":{"type":"Point","coordinates":["-3.3393107709299","55.883121729913"]},"properties":{"Site_Name":"Bavelaw Road | Balerno","RecyclingS":"Bavelaw Road - Car Park Opposite Scotmid","BankTypeNa":"Can Banks","Latitude":"55.883121729913","Longitude":"-3.3393107709299"}},{"type":"Feature","geometry":{"type":"Point","coordinates":["-3.3393107709299","55.883121729913"]},"properties":{"Site_Name":"Bavelaw Road | Balerno","RecyclingS":"Bavelaw Road - Car Park Opposite Scotmid","BankTypeNa":"Packaging","Latitude":"55.883121729913","Longitude":"-3.3393107709299"}},{"type":"Feature","geometry":{"type":"Point","coordinates":["-3.1947707704766","55.96410426454"]},"properties":{"Site_Name":"Beaverbank Place","RecyclingS":"17 Beaverbank Place","BankTypeNa":"Packaging","Latitude":"55.96410426454","Longitude":"-3.1947707704766"}},{"type":"Feature","geometry":{"type":"Point","coordinates":["-3.1947707704766","55.96410426454"]},"properties":{"Site_Name":"Beaverbank Place","RecyclingS":"17 Beaverbank Place","BankTypeNa":"Packaging","Latitude":"55.96410426454","Longitude":"-3.1947707704766"}},{"type":"Feature","geometry":{"type":"Point","coordinates":["-3.1947707704766","55.96410426454"]},"properties":{"Site_Name":"Beaverbank Place","RecyclingS":"17 Beaverbank Place","BankTypeNa":"Packaging","Latitude":"55.96410426454","Longitude":"-3.1947707704766"}},{"type":"Feature","geometry":{"type":"Point","coordinates":["-3.1947707704766","55.96410426454"]},"properties":{"Site_Name":"Beaverbank Place","RecyclingS":"17 Beaverbank Place","BankTypeNa":"Packaging","Latitude":"55.96410426454","Longitude":"-3.1947707704766"}},{"type":"Feature","geometry":{"type":"Point","coordinates":["-3.1947707704766","55.96410426454"]},"properties":{"Site_Name":"Beaverbank Place","RecyclingS":"17 Beaverbank Place","BankTypeNa":"Packaging","Latitude":"55.96410426454","Longitude":"-3.1947707704766"}},{"type":"Feature","geometry":{"type":"Point","coordinates":["-3.1947707704766","55.96410426454"]},"properties":{"Site_Name":"Beaverbank Place","RecyclingS":"17 Beaverbank Place","BankTypeNa":"Bottle Bank - Mixed","Latitude":"55.96410426454","Longitude":"-3.1947707704766"}},{"type":"Feature","geometry":{"type":"Point","coordinates":["-3.1947707704766","55.96410426454"]},"properties":{"Site_Name":"Beaverbank Place","RecyclingS":"17 Beaverbank Place","BankTypeNa":"Paper Bank","Latitude":"55.96410426454","Longitude":"-3.1947707704766"}},{"type":"Feature","geometry":{"type":"Point","coordinates":["-3.1947707704766","55.96410426454"]},"properties":{"Site_Name":"Beaverbank Place","RecyclingS":"17 Beaverbank Place","BankTypeNa":"Paper Bank","Latitude":"55.96410426454","Longitude":"-3.1947707704766"}},{"type":"Feature","geometry":{"type":"Point","coordinates":["-3.1947707704766","55.96410426454"]},"properties":{"Site_Name":"Beaverbank Place","RecyclingS":"17 Beaverbank Place","BankTypeNa":"Packaging","Latitude":"55.96410426454","Longitude":"-3.1947707704766"}},{"type":"Feature","geometry":{"type":"Point","coordinates":["-3.1947707704766","55.96410426454"]},"properties":{"Site_Name":"Beaverbank Place","RecyclingS":"17 Beaverbank Place","BankTypeNa":"Paper Bank","Latitude":"55.96410426454","Longitude":"-3.1947707704766"}},{"type":"Feature","geometry":{"type":"Point","coordinates":["-3.1947707704766","55.96410426454"]},"properties":{"Site_Name":"Beaverbank Place","RecyclingS":"17 Beaverbank Place","BankTypeNa":"Packaging","Latitude":"55.96410426454","Longitude":"-3.1947707704766"}},{"type":"Feature","geometry":{"type":"Point","coordinates":["-3.1947707704766","55.96410426454"]},"properties":{"Site_Name":"Beaverbank Place","RecyclingS":"17 Beaverbank Place","BankTypeNa":"Packaging","Latitude":"55.96410426454","Longitude":"-3.1947707704766"}},{"type":"Feature","geometry":{"type":"Point","coordinates":["-3.1947707704766","55.96410426454"]},"properties":{"Site_Name":"Beaverbank Place","RecyclingS":"17 Beaverbank Place","BankTypeNa":"Bottle Bank - Mixed","Latitude":"55.96410426454","Longitude":"-3.1947707704766"}},{"type":"Feature","geometry":{"type":"Point","coordinates":["-3.1947707704766","55.96410426454"]},"properties":{"Site_Name":"Beaverbank Place","RecyclingS":"17 Beaverbank Place","BankTypeNa":"Bottle Bank - Mixed","Latitude":"55.96410426454","Longitude":"-3.1947707704766"}},{"type":"Feature","geometry":{"type":"Point","coordinates":["-3.1947707704766","55.96410426454"]},"properties":{"Site_Name":"Beaverbank Place","RecyclingS":"17 Beaverbank Place","BankTypeNa":"Textile Bank","Latitude":"55.96410426454","Longitude":"-3.1947707704766"}},{"type":"Feature","geometry":{"type":"Point","coordinates":["-3.1947707704766","55.96410426454"]},"properties":{"Site_Name":"Beaverbank Place","RecyclingS":"17 Beaverbank Place","BankTypeNa":"Packaging","Latitude":"55.96410426454","Longitude":"-3.1947707704766"}},{"type":"Feature","geometry":{"type":"Point","coordinates":["-3.1947707704766","55.96410426454"]},"properties":{"Site_Name":"Beaverbank Place","RecyclingS":"17 Beaverbank Place","BankTypeNa":"Packaging","Latitude":"55.96410426454","Longitude":"-3.1947707704766"}},{"type":"Feature","geometry":{"type":"Point","coordinates":["-3.1918444245587","55.96479752256"]},"properties":{"Site_Name":"Beaverhall Road","RecyclingS":"LHS No. 4 Beaverhall Road","BankTypeNa":"Paper Bank","Latitude":"55.96479752256","Longitude":"-3.1918444245587"}},{"type":"Feature","geometry":{"type":"Point","coordinates":["-3.1918444245587","55.96479752256"]},"properties":{"Site_Name":"Beaverhall Road","RecyclingS":"LHS No. 4 Beaverhall Road","BankTypeNa":"Packaging","Latitude":"55.96479752256","Longitude":"-3.1918444245587"}},{"type":"Feature","geometry":{"type":"Point","coordinates":["-3.1918444245587","55.96479752256"]},"properties":{"Site_Name":"Beaverhall Road","RecyclingS":"LHS No. 4 Beaverhall Road","BankTypeNa":"Packaging","Latitude":"55.96479752256","Longitude":"-3.1918444245587"}},{"type":"Feature","geometry":{"type":"Point","coordinates":["-3.2138559830972","55.958140099029"]},"properties":{"Site_Name":"Bedford Court","RecyclingS":"Bedford Court","BankTypeNa":"Paper Bank","Latitude":"55.958140099029","Longitude":"-3.2138559830972"}},{"type":"Feature","geometry":{"type":"Point","coordinates":["-3.2194361262413","55.951202113162"]},"properties":{"Site_Name":"Belford Road","RecyclingS":"56 Belford Road","BankTypeNa":"Bottle Bank - Mixed","Latitude":"55.951202113162","Longitude":"-3.2194361262413"}},{"type":"Feature","geometry":{"type":"Point","coordinates":["-3.2194361262413","55.951202113162"]},"properties":{"Site_Name":"Belford Road","RecyclingS":"56 Belford Road","BankTypeNa":"Paper Bank","Latitude":"55.951202113162","Longitude":"-3.2194361262413"}},{"type":"Feature","geometry":{"type":"Point","coordinates":["-3.2194361262413","55.951202113162"]},"properties":{"Site_Name":"Belford Road","RecyclingS":"56 Belford Road","BankTypeNa":"Paper Bank","Latitude":"55.951202113162","Longitude":"-3.2194361262413"}},{"type":"Feature","geometry":{"type":"Point","coordinates":["-3.2194361262413","55.951202113162"]},"properties":{"Site_Name":"Belford Road","RecyclingS":"56 Belford Road","BankTypeNa":"Bottle Bank - Mixed","Latitude":"55.951202113162","Longitude":"-3.2194361262413"}},{"type":"Feature","geometry":{"type":"Point","coordinates":["-3.2166308257896","55.951625205696"]},"properties":{"Site_Name":"Belford Road","RecyclingS":"No. 16 Belford Road","BankTypeNa":"Packaging","Latitude":"55.951625205696","Longitude":"-3.2166308257896"}},{"type":"Feature","geometry":{"type":"Point","coordinates":["-3.2190072538831","55.951314182777"]},"properties":{"Site_Name":"Belford Road","RecyclingS":"No. 49 Belford Road - Belford Court","BankTypeNa":"Bottle Bank - Mixed","Latitude":"55.951314182777","Longitude":"-3.2190072538831"}},{"type":"Feature","geometry":{"type":"Point","coordinates":["-3.2166308257896","55.951625205696"]},"properties":{"Site_Name":"Belford Road","RecyclingS":"No. 16 Belford Road","BankTypeNa":"Paper Bank","Latitude":"55.951625205696","Longitude":"-3.2166308257896"}},{"type":"Feature","geometry":{"type":"Point","coordinates":["-3.2190072538831","55.951314182777"]},"properties":{"Site_Name":"Belford Road","RecyclingS":"No. 49 Belford Road - Belford Court","BankTypeNa":"Paper Bank","Latitude":"55.951314182777","Longitude":"-3.2190072538831"}},{"type":"Feature","geometry":{"type":"Point","coordinates":["-3.2121295114956","55.924937658526"]},"properties":{"Site_Name":"Belhaven Place","RecyclingS":"Opposite No. 1 Belhaven Place","BankTypeNa":"Packaging","Latitude":"55.924937658526","Longitude":"-3.2121295114956"}},{"type":"Feature","geometry":{"type":"Point","coordinates":["-3.2121295114956","55.924937658526"]},"properties":{"Site_Name":"Belhaven Place","RecyclingS":"Opposite No. 1 Belhaven Place","BankTypeNa":"Paper Bank","Latitude":"55.924937658526","Longitude":"-3.2121295114956"}},{"type":"Feature","geometry":{"type":"Point","coordinates":["-3.188575583785","55.965296334068"]},"properties":{"Site_Name":"Bellevue Road","RecyclingS":"CEC Buildings - Car park off Macdonald Road + broughton primary round back in playground","BankTypeNa":"Packaging","Latitude":"55.965296334068","Longitude":"-3.188575583785"}},{"type":"Feature","geometry":{"type":"Point","coordinates":["-3.2228857228389","55.949882998098"]},"properties":{"Site_Name":"Bell's Mills","RecyclingS":"Nos. 2 - 5 Bell's Mills","BankTypeNa":"Bottle Bank - Mixed","Latitude":"55.949882998098","Longitude":"-3.2228857228389"}},{"type":"Feature","geometry":{"type":"Point","coordinates":["-3.2228857228389","55.949882998098"]},"properties":{"Site_Name":"Bell's Mills","RecyclingS":"Nos. 2 - 5 Bell's Mills","BankTypeNa":"Paper Bank","Latitude":"55.949882998098","Longitude":"-3.2228857228389"}},{"type":"Feature","geometry":{"type":"Point","coordinates":["-3.2228857228389","55.949882998098"]},"properties":{"Site_Name":"Bell's Mills","RecyclingS":"Nos. 2 - 5 Bell's Mills","BankTypeNa":"Packaging","Latitude":"55.949882998098","Longitude":"-3.2228857228389"}},{"type":"Feature","geometry":{"type":"Point","coordinates":["-3.2228857228389","55.949882998098"]},"properties":{"Site_Name":"Bell's Mills","RecyclingS":"Nos. 2 - 5 Bell's Mills","BankTypeNa":"Packaging","Latitude":"55.949882998098","Longitude":"-3.2228857228389"}},{"type":"Feature","geometry":{"type":"Point","coordinates":["-3.2228857228389","55.949882998098"]},"properties":{"Site_Name":"Bell's Mills","RecyclingS":"Nos. 2 - 5 Bell's Mills","BankTypeNa":"Textile Bank","Latitude":"55.949882998098","Longitude":"-3.2228857228389"}},{"type":"Feature","geometry":{"type":"Point","coordinates":["-3.1786512542186","55.941328599279"]},"properties":{"Site_Name":"Bernard Terrace","RecyclingS":"No. 32 Bernard Terrace","BankTypeNa":"Packaging","Latitude":"55.941328599279","Longitude":"-3.1786512542186"}},{"type":"Feature","geometry":{"type":"Point","coordinates":["-3.1786512542186","55.941328599279"]},"properties":{"Site_Name":"Bernard Terrace","RecyclingS":"No. 32 Bernard Terrace","BankTypeNa":"Paper Bank","Latitude":"55.941328599279","Longitude":"-3.1786512542186"}},{"type":"Feature","geometry":{"type":"Point","coordinates":["-3.1605659374963","55.963487642783"]},"properties":{"Site_Name":"Bethlehem Way","RecyclingS":"RHS entrance to Bethlehem Way","BankTypeNa":"Packaging","Latitude":"55.963487642783","Longitude":"-3.1605659374963"}},{"type":"Feature","geometry":{"type":"Point","coordinates":["-3.1607295844151","55.963602912063"]},"properties":{"Site_Name":"Bethlehem Way","RecyclingS":"LHS Entrance to Bethlehem Way","BankTypeNa":"Bottle Bank - Mixed","Latitude":"55.963602912063","Longitude":"-3.1607295844151"}},{"type":"Feature","geometry":{"type":"Point","coordinates":["-3.1607295844151","55.963602912063"]},"properties":{"Site_Name":"Bethlehem Way","RecyclingS":"LHS Entrance to Bethlehem Way","BankTypeNa":"Packaging","Latitude":"55.963602912063","Longitude":"-3.1607295844151"}},{"type":"Feature","geometry":{"type":"Point","coordinates":["-3.1607295844151","55.963602912063"]},"properties":{"Site_Name":"Bethlehem Way","RecyclingS":"LHS Entrance to Bethlehem Way","BankTypeNa":"Packaging","Latitude":"55.963602912063","Longitude":"-3.1607295844151"}},{"type":"Feature","geometry":{"type":"Point","coordinates":["-3.1607295844151","55.963602912063"]},"properties":{"Site_Name":"Bethlehem Way","RecyclingS":"LHS Entrance to Bethlehem Way","BankTypeNa":"Packaging","Latitude":"55.963602912063","Longitude":"-3.1607295844151"}},{"type":"Feature","geometry":{"type":"Point","coordinates":["-3.1607295844151","55.963602912063"]},"properties":{"Site_Name":"Bethlehem Way","RecyclingS":"LHS Entrance to Bethlehem Way","BankTypeNa":"Paper Bank","Latitude":"55.963602912063","Longitude":"-3.1607295844151"}},{"type":"Feature","geometry":{"type":"Point","coordinates":["-3.1605659374963","55.963487642783"]},"properties":{"Site_Name":"Bethlehem Way","RecyclingS":"RHS entrance to Bethlehem Way","BankTypeNa":"Bottle Bank - Mixed","Latitude":"55.963487642783","Longitude":"-3.1605659374963"}},{"type":"Feature","geometry":{"type":"Point","coordinates":["-3.1606030772024","55.963658015974"]},"properties":{"Site_Name":"Bethlehem Way","RecyclingS":"No. 1 Bethlehem Way","BankTypeNa":"Packaging","Latitude":"55.963658015974","Longitude":"-3.1606030772024"}},{"type":"Feature","geometry":{"type":"Point","coordinates":["-3.1605659374963","55.963487642783"]},"properties":{"Site_Name":"Bethlehem Way","RecyclingS":"RHS entrance to Bethlehem Way","BankTypeNa":"Paper Bank","Latitude":"55.963487642783","Longitude":"-3.1605659374963"}},{"type":"Feature","geometry":{"type":"Point","coordinates":["-3.1605659374963","55.963487642783"]},"properties":{"Site_Name":"Bethlehem Way","RecyclingS":"RHS entrance to Bethlehem Way","BankTypeNa":"Packaging","Latitude":"55.963487642783","Longitude":"-3.1605659374963"}},{"type":"Feature","geometry":{"type":"Point","coordinates":["-3.1171482452424","55.939969760308"]},"properties":{"Site_Name":"Bingham Crescent","RecyclingS":"Opposite No. 37 Bingham Crescent","BankTypeNa":"Paper Bank","Latitude":"55.939969760308","Longitude":"-3.1171482452424"}},{"type":"Feature","geometry":{"type":"Point","coordinates":["-3.1171482452424","55.939969760308"]},"properties":{"Site_Name":"Bingham Crescent","RecyclingS":"Opposite No. 37 Bingham Crescent","BankTypeNa":"Packaging","Latitude":"55.939969760308","Longitude":"-3.1171482452424"}},{"type":"Feature","geometry":{"type":"Point","coordinates":["-3.1171482452424","55.939969760308"]},"properties":{"Site_Name":"Bingham Crescent","RecyclingS":"Opposite No. 37 Bingham Crescent","BankTypeNa":"Packaging","Latitude":"55.939969760308","Longitude":"-3.1171482452424"}},{"type":"Feature","geometry":{"type":"Point","coordinates":["-3.1729090825314","55.936216755151"]},"properties":{"Site_Name":"Blacket Avenue","RecyclingS":"No. 8 Blacket Avenue","BankTypeNa":"Packaging","Latitude":"55.936216755151","Longitude":"-3.1729090825314"}},{"type":"Feature","geometry":{"type":"Point","coordinates":["-3.1729090825314","55.936216755151"]},"properties":{"Site_Name":"Blacket Avenue","RecyclingS":"No. 8 Blacket Avenue","BankTypeNa":"Paper Bank","Latitude":"55.936216755151","Longitude":"-3.1729090825314"}},{"type":"Feature","geometry":{"type":"Point","coordinates":["-3.1729090825314","55.936216755151"]},"properties":{"Site_Name":"Blacket Avenue","RecyclingS":"No. 8 Blacket Avenue","BankTypeNa":"Bottle Bank - Mixed","Latitude":"55.936216755151","Longitude":"-3.1729090825314"}},{"type":"Feature","geometry":{"type":"Point","coordinates":["-3.1725952507485","55.936426408477"]},"properties":{"Site_Name":"Blacket Avenue","RecyclingS":"10-14 Blacket Avenue","BankTypeNa":"Paper Bank","Latitude":"55.936426408477","Longitude":"-3.1725952507485"}},{"type":"Feature","geometry":{"type":"Point","coordinates":["-3.1725952507485","55.936426408477"]},"properties":{"Site_Name":"Blacket Avenue","RecyclingS":"10-14 Blacket Avenue","BankTypeNa":"Bottle Bank - Mixed","Latitude":"55.936426408477","Longitude":"-3.1725952507485"}},{"type":"Feature","geometry":{"type":"Point","coordinates":["-3.1729090825314","55.936216755151"]},"properties":{"Site_Name":"Blacket Avenue","RecyclingS":"No. 8 Blacket Avenue","BankTypeNa":"Paper Bank","Latitude":"55.936216755151","Longitude":"-3.1729090825314"}},{"type":"Feature","geometry":{"type":"Point","coordinates":["-3.1725952507485","55.936426408477"]},"properties":{"Site_Name":"Blacket Avenue","RecyclingS":"10-14 Blacket Avenue","BankTypeNa":"Packaging","Latitude":"55.936426408477","Longitude":"-3.1725952507485"}},{"type":"Feature","geometry":{"type":"Point","coordinates":["-3.1862426487864","55.926744174612"]},"properties":{"Site_Name":"Blackford Avenue","RecyclingS":"No. 39 Blackford Avenue","BankTypeNa":"Paper Bank","Latitude":"55.926744174612","Longitude":"-3.1862426487864"}},{"type":"Feature","geometry":{"type":"Point","coordinates":["-3.1862426487864","55.926744174612"]},"properties":{"Site_Name":"Blackford Avenue","RecyclingS":"No. 39 Blackford Avenue","BankTypeNa":"Bottle Bank - Mixed","Latitude":"55.926744174612","Longitude":"-3.1862426487864"}},{"type":"Feature","geometry":{"type":"Point","coordinates":["-3.1846758699228","55.926274036227"]},"properties":{"Site_Name":"Blackford Avenue","RecyclingS":"Opposite 84 Blackford Avenue","BankTypeNa":"Packaging","Latitude":"55.926274036227","Longitude":"-3.1846758699228"}},{"type":"Feature","geometry":{"type":"Point","coordinates":["-3.1846758699228","55.926274036227"]},"properties":{"Site_Name":"Blackford Avenue","RecyclingS":"Opposite 84 Blackford Avenue","BankTypeNa":"Paper Bank","Latitude":"55.926274036227","Longitude":"-3.1846758699228"}},{"type":"Feature","geometry":{"type":"Point","coordinates":["-3.1862426487864","55.926744174612"]},"properties":{"Site_Name":"Blackford Avenue","RecyclingS":"No. 39 Blackford Avenue","BankTypeNa":"Packaging","Latitude":"55.926744174612","Longitude":"-3.1862426487864"}},{"type":"Feature","geometry":{"type":"Point","coordinates":["-3.1813698238114","55.919135359108"]},"properties":{"Site_Name":"Blackford Glen Road","RecyclingS":"Edinburgh Road Services Depot","BankTypeNa":"Paper Bank","Latitude":"55.919135359108","Longitude":"-3.1813698238114"}},{"type":"Feature","geometry":{"type":"Point","coordinates":["-3.1813698238114","55.919135359108"]},"properties":{"Site_Name":"Blackford Glen Road","RecyclingS":"Edinburgh Road Services Depot","BankTypeNa":"Packaging","Latitude":"55.919135359108","Longitude":"-3.1813698238114"}},{"type":"Feature","geometry":{"type":"Point","coordinates":["-3.1813698238114","55.919135359108"]},"properties":{"Site_Name":"Blackford Glen Road","RecyclingS":"Edinburgh Road Services Depot","BankTypeNa":"Paper Bank","Latitude":"55.919135359108","Longitude":"-3.1813698238114"}},{"type":"Feature","geometry":{"type":"Point","coordinates":["-3.1856995964196","55.949833109864"]},"properties":{"Site_Name":"Blackfriars Street","RecyclingS":"27 Blackfriars Street","BankTypeNa":"Packaging","Latitude":"55.949833109864","Longitude":"-3.1856995964196"}},{"type":"Feature","geometry":{"type":"Point","coordinates":["-3.1856995964196","55.949833109864"]},"properties":{"Site_Name":"Blackfriars Street","RecyclingS":"27 Blackfriars Street","BankTypeNa":"Paper Bank","Latitude":"55.949833109864","Longitude":"-3.1856995964196"}},{"type":"Feature","geometry":{"type":"Point","coordinates":["-3.1584477599449","55.968728095357"]},"properties":{"Site_Name":"Blackie Road","RecyclingS":"No. 2 Blackie Road","BankTypeNa":"Packaging","Latitude":"55.968728095357","Longitude":"-3.1584477599449"}},{"type":"Feature","geometry":{"type":"Point","coordinates":["-3.1584477599449","55.968728095357"]},"properties":{"Site_Name":"Blackie Road","RecyclingS":"No. 2 Blackie Road","BankTypeNa":"Packaging","Latitude":"55.968728095357","Longitude":"-3.1584477599449"}},{"type":"Feature","geometry":{"type":"Point","coordinates":["-3.1584477599449","55.968728095357"]},"properties":{"Site_Name":"Blackie Road","RecyclingS":"No. 2 Blackie Road","BankTypeNa":"Paper Bank","Latitude":"55.968728095357","Longitude":"-3.1584477599449"}},{"type":"Feature","geometry":{"type":"Point","coordinates":["-3.1808439755103","55.938674858533"]},"properties":{"Site_Name":"Blackwood Crescent","RecyclingS":"No. 14 Blackwood Crescent","BankTypeNa":"Paper Bank","Latitude":"55.938674858533","Longitude":"-3.1808439755103"}},{"type":"Feature","geometry":{"type":"Point","coordinates":["-3.1808439755103","55.938674858533"]},"properties":{"Site_Name":"Blackwood Crescent","RecyclingS":"No. 14 Blackwood Crescent","BankTypeNa":"Packaging","Latitude":"55.938674858533","Longitude":"-3.1808439755103"}},{"type":"Feature","geometry":{"type":"Point","coordinates":["-3.1808439755103","55.938674858533"]},"properties":{"Site_Name":"Blackwood Crescent","RecyclingS":"No. 14 Blackwood Crescent","BankTypeNa":"Bottle Bank - Mixed","Latitude":"55.938674858533","Longitude":"-3.1808439755103"}},{"type":"Feature","geometry":{"type":"Point","coordinates":["-3.1801412940396","55.938205361355"]},"properties":{"Site_Name":"Blackwood Crescent","RecyclingS":"No. 25 Blackwood Crescent","BankTypeNa":"Packaging","Latitude":"55.938205361355","Longitude":"-3.1801412940396"}},{"type":"Feature","geometry":{"type":"Point","coordinates":["-3.1802589477599","55.937862786141"]},"properties":{"Site_Name":"Blackwood Crescent","RecyclingS":"No. 32 Blackwood Crescent","BankTypeNa":"Paper Bank","Latitude":"55.937862786141","Longitude":"-3.1802589477599"}},{"type":"Feature","geometry":{"type":"Point","coordinates":["-3.1806281090654","55.938946491681"]},"properties":{"Site_Name":"Blackwood Crescent","RecyclingS":"No. 2 Blackwood Crescent","BankTypeNa":"Paper Bank","Latitude":"55.938946491681","Longitude":"-3.1806281090654"}},{"type":"Feature","geometry":{"type":"Point","coordinates":["-3.1873982878715","55.949349507693"]},"properties":{"Site_Name":"Blair Street","RecyclingS":"10 Blair Street","BankTypeNa":"Paper Bank","Latitude":"55.949349507693","Longitude":"-3.1873982878715"}},{"type":"Feature","geometry":{"type":"Point","coordinates":["-3.1873982878715","55.949349507693"]},"properties":{"Site_Name":"Blair Street","RecyclingS":"10 Blair Street","BankTypeNa":"Packaging","Latitude":"55.949349507693","Longitude":"-3.1873982878715"}},{"type":"Feature","geometry":{"type":"Point","coordinates":["-3.1869217204317","55.966219802827"]},"properties":{"Site_Name":"Blandfield","RecyclingS":"Nos. 10 & 11 Blandfield","BankTypeNa":"Packaging","Latitude":"55.966219802827","Longitude":"-3.1869217204317"}},{"type":"Feature","geometry":{"type":"Point","coordinates":["-3.1869217204317","55.966219802827"]},"properties":{"Site_Name":"Blandfield","RecyclingS":"Nos. 10 & 11 Blandfield","BankTypeNa":"Packaging","Latitude":"55.966219802827","Longitude":"-3.1869217204317"}},{"type":"Feature","geometry":{"type":"Point","coordinates":["-3.1869217204317","55.966219802827"]},"properties":{"Site_Name":"Blandfield","RecyclingS":"Nos. 10 & 11 Blandfield","BankTypeNa":"Paper Bank","Latitude":"55.966219802827","Longitude":"-3.1869217204317"}},{"type":"Feature","geometry":{"type":"Point","coordinates":["-3.1869217204317","55.966219802827"]},"properties":{"Site_Name":"Blandfield","RecyclingS":"Nos. 10 & 11 Blandfield","BankTypeNa":"Paper Bank","Latitude":"55.966219802827","Longitude":"-3.1869217204317"}},{"type":"Feature","geometry":{"type":"Point","coordinates":["-3.1869217204317","55.966219802827"]},"properties":{"Site_Name":"Blandfield","RecyclingS":"Nos. 10 & 11 Blandfield","BankTypeNa":"Bottle Bank - Mixed","Latitude":"55.966219802827","Longitude":"-3.1869217204317"}},{"type":"Feature","geometry":{"type":"Point","coordinates":["-3.1869217204317","55.966219802827"]},"properties":{"Site_Name":"Blandfield","RecyclingS":"Nos. 10 & 11 Blandfield","BankTypeNa":"Bottle Bank - Mixed","Latitude":"55.966219802827","Longitude":"-3.1869217204317"}},{"type":"Feature","geometry":{"type":"Point","coordinates":["-3.1982694679931","55.963791747733"]},"properties":{"Site_Name":"Boat Green","RecyclingS":"Parking bay, Boat Green","BankTypeNa":"Packaging","Latitude":"55.963791747733","Longitude":"-3.1982694679931"}},{"type":"Feature","geometry":{"type":"Point","coordinates":["-3.1982694679931","55.963791747733"]},"properties":{"Site_Name":"Boat Green","RecyclingS":"Parking bay, Boat Green","BankTypeNa":"Bottle Bank - Mixed","Latitude":"55.963791747733","Longitude":"-3.1982694679931"}},{"type":"Feature","geometry":{"type":"Point","coordinates":["-3.1982694679931","55.963791747733"]},"properties":{"Site_Name":"Boat Green","RecyclingS":"Parking bay, Boat Green","BankTypeNa":"Paper Bank","Latitude":"55.963791747733","Longitude":"-3.1982694679931"}},{"type":"Feature","geometry":{"type":"Point","coordinates":["-3.1982694679931","55.963791747733"]},"properties":{"Site_Name":"Boat Green","RecyclingS":"Parking bay, Boat Green","BankTypeNa":"Packaging","Latitude":"55.963791747733","Longitude":"-3.1982694679931"}},{"type":"Feature","geometry":{"type":"Point","coordinates":["-3.258615193426","55.899590273417"]},